postnr,by,kortnavn,væsensnavn,adresse,latitude,bibliotekstype,id,longitude,navn
0112,Fladøen S,Øknasten,Øen,Fladøens Filialvej 17,,Other,000201,,Øknasten
2750,Ballerup,Dummy Bestilmodtager,Dummy Bestilmodtager,Tempovej 7-11,,Forskningsbibliotek,100400,,Dummy Bestilmodtager
0115,Qtestfilialby,Qtestfilial,Dummy Bestilmodtager,Qtestfilialvej 1,,Forskningsbibliotek,100401,,Qtestfilial
0117,Q2zx,Q1fjern kort,Integra Testbiblioteker,Q1vej 22,,Folkebibliotek,100450,,Q1fjern
0116,Q2zx,Q2fjern kort,Q2fjern-Væsen,Qfjernvej 2,,Other,100451,,Q2fjern
,,,FBSDemo-Folk1,,,Folkebibliotek,131300,,FBSDemo-Folk1
,,,FBSDemo-Folk1,,,Folkebibliotek,135300,,FBSDemo-Folk1
D-24939,Flensburg,Dansk Centralbibliotek,Dansk Centralbibliotek for Sydslesvig e.V.,Norderstrasse 59,54.79212,Folkebibliotek,700400,9.43103,Flensborg Bibliotek
D-25813,Husum,Husum Bibliotek,Dansk Centralbibliotek for Sydslesvig e.V.,Neustadt 81,54.4801716,Folkebibliotek,700401,9.0467115,Husum Bibliotek
D-24837,Schleswig,Slesvig Bibliotek,Dansk Centralbibliotek for Sydslesvig e.V.,Bismarckstraße 18A,54.5188982,Folkebibliotek,700402,9.5640843,Slesvig Bibliotek
D-24340,Eckernförde,Fællesbiblioteket Egernførde,Dansk Centralbibliotek for Sydslesvig e.V.,Hans-Chr-Andersen Weg 2,54.47328,Folkebibliotek,700404,9.82871,Fællesbiblioteket Egernførde
D-24939,Flensburg,Bogbusserne,Dansk Centralbibliotek for Sydslesvig e.V.,Norderstr. 59,54.79212,Folkebibliotek,700405,9.43103,Bogbusserne
1172,København K,København,Københavns Biblioteker,Krystalgade 15,55.680887,Folkebibliotek,710100,12.573619,"Hovedbiblioteket, Krystalgade"
2200,København N,Blågården,Københavns Biblioteker,Blågårds Plads 5,55.6860904,Folkebibliotek,710104,12.5567168,Blågårdens Bibliotek
2700,Brønshøj,Brønshøj,Københavns Biblioteker,"Krabbesholmvej 3
",55.7042921,Folkebibliotek,710105,12.4993836,Brønshøj Bibliotek
1420,København K,Christianshavn,Københavns Biblioteker,Dronningensgade 53,55.6723406,Folkebibliotek,710106,12.5921292,Christianshavns Bibliotek
2700,Brønshøj,Husum,Københavns Biblioteker,Frederikssundsvej 290,55.7113268,Folkebibliotek,710107,12.4747123,Husum Bibliotek
2300,København S,Islands Brygge,Københavns Biblioteker,Njalsgade 15,55.6665428,Folkebibliotek,710108,12.5791908,Islands Brygge Bibliotek
2100,København Ø,Øbro,Københavns Biblioteker,Jagtvej 227,55.709173,Folkebibliotek,710109,12.576458,Øbro Jagtvej Bibliotek
2400,København NV,Rentemestervej,Københavns Biblioteker,Rentemestervej 76,55.708421,Folkebibliotek,710110,12.52288,Biblioteket Rentemestervej
2200,København N,Nørrebro,Københavns Biblioteker,Bragesgade 8,55.6990425,Folkebibliotek,710111,12.5432118,Nørrebro Bibliotek
2300,København S,Solvang Bibliotek,Københavns Biblioteker,Remisevej 14,55.6487443,Folkebibliotek,710112,12.5955017,Solvang Bibliotek
2300,København S,Sundby Bibliotek,Københavns Biblioteker,Kvarterhuset Jemtelandsgade 3,55.6651998,Folkebibliotek,710113,12.6038686,Sundby Bibliotek
2300,København S,Bibliotekshuset,Københavns Biblioteker,Rodosvej 4,55.650359,Folkebibliotek,710114,12.6132581,Bibliotekshuset
2450,København SV,Sydhavnen Bibliotek,Københavns Biblioteker,Wagnersvej 19,55.6468105,Folkebibliotek,710115,12.529623,Sydhavnens Bibliotek
2700,Brønshøj,Tingbjerg,Københavns Biblioteker,Ruten 14,55.718864,Folkebibliotek,710116,12.481163,Tingbjerg Bibliotek
2500,Valby,Valby Bibliotek,Københavns Biblioteker,Annexstræde 2,55.665354,Folkebibliotek,710117,12.513072,Valby Bibliotek
2720,Vanløse,Vanløse,Københavns Biblioteker,Jernbane Alle 38,55.686532,Folkebibliotek,710118,12.491274,Kulturstationen Vanløse. Biblioteket
1758,København V,Vesterbro,Københavns Biblioteker,Lyrskovgade 4,55.667836,Folkebibliotek,710119,12.543681,Vesterbro Bibliotek
2500,Valby,Vigerslev,Københavns Biblioteker,Kirsebærhaven 23,55.649234,Folkebibliotek,710120,12.5032789,Vigerslev Bibliotek
2100,København Ø,Østerbro,Københavns Biblioteker,Dag Hammarskjölds Alle 19,55.694579,Folkebibliotek,710121,12.581699,Østerbro Bibliotek
2300,København S,Ørestad Bibliotek,Københavns Biblioteker,Arne Jacobsens Allé 19,55.6313466,Folkebibliotek,710122,12.5809647,Ørestad Bibliotek
2000,Frederiksberg,Frederiksberg Bibliotek,Biblioteket Frederiksberg,Falkoner Plads 3,55.6810034,Folkebibliotek,714700,12.5303327,"Biblioteket Frederiksberg, Hovedbiblioteket"
1910,Frederiksberg C,Danasvej Bibliotek,Biblioteket Frederiksberg,Danasvej 30B,55.679546,Folkebibliotek,714702,12.550756,Biblioteket Danasvej
2000,Frederiksberg,Godthåbsvej,Biblioteket Frederiksberg,Godthåbsvej 85 A,55.688685,Folkebibliotek,714703,12.523189,Biblioteket Godthåbsvej
2000,Frederiksberg,Domus Vista Bibliotek,Biblioteket Frederiksberg,Nordens Plads 4,55.670992,Folkebibliotek,714704,12.500803,Biblioteket Domus Vista
2000,Frederiksberg,KU.BE,Biblioteket Frederiksberg,Dirch Passers Alle 4,,Folkebibliotek,714705,,Biblioteket KU.BE
,,,Biblioteket Frederiksberg,,,Folkebibliotek,714706,,"Frederiksberg Rådhus, Biblioteket"
2750,Ballerup,Ballerup Bibliotek,Ballerup Bibliotekerne,Banegårdspladsen 1,55.729601,Folkebibliotek,715100,12.359601,Ballerup Bibliotek
2740,Skovlunde,Skovlunde Kulturhus,Ballerup Bibliotekerne,Bybjergvej 8-10,55.71851,Folkebibliotek,715101,12.401545,Skovlunde Kulturhus
2760,Måløv,Kulturhus Måløv,Ballerup Bibliotekerne,Måløv Hovedgade 60,55.749694,Folkebibliotek,715102,12.319237,Kulturhus Måløv
2605,Brøndby,BrøndbyBibliotekerne,Brøndby-Bibliotekerne,Nygårds Plads 31,55.667581,Folkebibliotek,715300,12.439601,Biblioteket i Kilden
2605,Brøndby,Brøndbyvester,Brøndby-Bibliotekerne,Glentemosen 13,55.65282,Folkebibliotek,715301,12.408298,Brøndbyvester Bibliotek
2660,Brøndby Strand,Brønden,Brøndby-Bibliotekerne,Brønden Brøndby Strand Centrum 60,55.6232944,Folkebibliotek,715302,12.4233432,Biblioteket i Brønden
2791,Dragør,Dragør Bibliotek,Dragør Bibliotekerne,Vestgrønningen 18-20,55.5932177,Folkebibliotek,715500,12.6707656,Biblioteket i Dragør
2791,Dragør,Hollænderhallen,Dragør Bibliotekerne,Halvejen 3,55.594183,Folkebibliotek,715501,12.63912,Biblioteket i Hollænderhallen
,,,Dragør Bibliotekerne,,,Folkebibliotek,715502,,Lokalarkiv
2900,Hellerup,Gentofte Bibliotekerne,Gentofte Bibliotekerne,Ahlmanns Alle 6,55.737459,Folkebibliotek,715700,12.573438,Gentofte Bibliotekerne. Hovedbiblioteket
2920,Charlottenlund,Ordrup,Gentofte Bibliotekerne,Ejgårdsvej 11,55.7580265,Folkebibliotek,715701,12.5714021,Ordrup Bibliotek
2820,Gentofte,Vangede,Gentofte Bibliotekerne,Vangede Bygade 45,55.751032,Folkebibliotek,715702,12.5184979,Vangede Bibliotek
2820,Gentofte,Gentoftegade,Gentofte Bibliotekerne,Gentoftegade 45,55.746455,Folkebibliotek,715703,12.541343,Gentoftegade Bibliotek
2900,Dyssegård,Dyssegård,Gentofte Bibliotekerne,Dyssegårdsvej 24,55.732251,Folkebibliotek,715704,12.538733,Dyssegård Bibliotek
2820,Gentofte,Jægersborg,Gentofte Bibliotekerne,Smakkegårdsvej 112,55.7615678,Folkebibliotek,715705,12.5269871,Jægersborg Bibliotek
2860,Søborg,Gladsaxe Hovedbibliotek,Gladsaxe Bibliotekerne,Søborg Hovedgade 220,55.7423172,Folkebibliotek,715900,12.4949918,"Gladsaxe Bibliotekerne, Hovedbiblioteket"
2880,Bagsværd,Bibliografen,Gladsaxe Bibliotekerne,Bagsværd Hovedgade 116,55.7606338,Folkebibliotek,715902,12.4557026,Bibliografen  Bagsværd
2860,Søborg,Høje Gladsaxe,Gladsaxe Bibliotekerne,Høje Gladsaxe Torv 2A,55.730211,Folkebibliotek,715903,12.497613,Høje Gladsaxe Bibliotek
2860,Søborg,Mørkhøj,Gladsaxe Bibliotekerne,Ilbjerg Alle 38A,55.723797,Folkebibliotek,715904,12.469845,Mørkhøj Bibliotek
2880,Bagsværd,Værebro,Gladsaxe Bibliotekerne,Værebrovej 72,55.758464,Folkebibliotek,715905,12.439297,Værebro Bibliotek
2600,Glostrup,Glostrup Bibliotek,Glostrup Bibliotek,Kildevældets Alle 5,55.66366,Folkebibliotek,716100,12.3938279,Glostrup Bibliotek
2730,Herlev,Herlev Bibliotek,Herlev Bibliotek,Herlev Bygade 70,55.725455,Folkebibliotek,716300,12.435548,Herlev-Bibliotek. Hovedbiblioteket
2730,Herlev,Biblioteket Kilden,Herlev Bibliotek,"Biblioteket Kilden
Dildhaven 40",,Folkebibliotek,716301,,Hjortespring Bibliotek
2620,Albertslund,Albertslund Bibliotek,Albertslund Bibliotek,Bibliotekstorvet 2,55.6570156,Folkebibliotek,716500,12.3562517,Albertslund Bibliotek
2620,Albertslund,Hedemarken,Albertslund Bibliotek,Hedemarksvej 14,55.657011,Folkebibliotek,716503,12.3399174,Bibliotek og Medborgercenter Hedemarken
,,,Albertslund Bibliotek,,,Folkebibliotek,716510,,Herstedvester Skole Biblioteksservicepunkt
,,,Albertslund Bibliotek,,,Folkebibliotek,716511,,Herstedøster Skole Biblioteksservicepunkt
2650,Hvidovre,Hvidovre Hovedbibliotek,HvidovreBibliotekerne,Hvidovrevej 280,55.641952,Folkebibliotek,716700,12.477669,Hovedbiblioteket
2650,Hvidovre,Avedøre Bibliotek,HvidovreBibliotekerne,Hovedstien 14,55.62752,Folkebibliotek,716701,12.4500379,Avedøre Bibliotek
2630,Taastrup,Taastrup Bibliotek,Høje-Taastrup Kommunes Biblioteker,Taastrup Hovedgade 86,55.648429,Folkebibliotek,716900,12.299623,Tåstrup Bibliotek
2640,Hedehusene,Hedehusene Bibliotek,Høje-Taastrup Kommunes Biblioteker,"Hovedgaden 516, 1.sal",55.6494695,Folkebibliotek,716903,12.1973509,Hedehusene Bibliotek
2800,Kongens Lyngby,Lyngby Bibliotek,Lyngby-Taarbæk Bibliotekerne,Lyngby Hovedgade 28,55.773331,Folkebibliotek,717300,12.498974,Stadsbiblioteket i Lyngby
2930,Klampenborg,Taarbæk Bibliotek,Lyngby-Taarbæk Bibliotekerne,Taarbæk Strandvej 96,55.7870693,Folkebibliotek,717303,12.5947267,Taarbæk Bibliotek
2830,Virum,Virum Mikrobibliotek,Lyngby-Taarbæk Bibliotekerne,Geels Plads 40,55.793748,Folkebibliotek,717305,12.47468,Virum Mikrobibliotek
2610,Rødovre,Rødovre Bibliotek,Rødovre Kommunebiblioteker,Rødovre Parkvej 140,55.680913,Folkebibliotek,717500,12.457274,Rødovre Kommunebiblioteker
2610,Rødovre,Islev,Rødovre Kommunebiblioteker,Rødovrevej 405,55.701627,Folkebibliotek,717501,12.454169,Islev Bibliotek: Trekanten
2610,Rødovre,Cafébiblioteket,Rødovre Kommunebiblioteker,Uddannelsescenter Milestedet Nørrekær 8,,Folkebibliotek,717502,,Cafébiblioteket: Tremilen
2635,Ishøj,Ishøj Bibliotek,Ishøj Bibliotek,Ishøj Store Torv 1,55.6137373,Folkebibliotek,718300,12.3559647,Ishøj Bibliotek
2635,Ishøj,Bib-boksen,Ishøj Bibliotek,Ishøj Store Torv 1,55.6137373,Folkebibliotek,718301,12.3559647,Afhentningssted Bibboks
2770,Kastrup,Tårnby Kommunebiblioteker,Tårnby Kommunebiblioteker,Kamillevej 10,55.632321,Folkebibliotek,718500,12.622646,Hovedbiblioteket
2770,Kastrup,Vestamager Bibliotek,Tårnby Kommunebiblioteker,Ugandavej 111,55.603256,Folkebibliotek,718502,12.586085,Filial Vestamager
2665,Vallensbæk Strand,Vallensbæk Bibliotek,Vallensbæk Bibliotek,Vallensbæk Stationstorv 40,55.624257,Folkebibliotek,718700,12.387463,Vallensbæk Bibliotek
2625,Vallensbæk,Pilehaveskolen,Vallensbæk Bibliotek,Horsbred 197A,55.6502132,Folkebibliotek,718711,12.3573339,Pilehaveskolen Biblioteksservicepunkt
3500,Værløse,Værløse Bibliotek,Furesø Bibliotek & Borgerservice,Bymidten 48,55.783473,Folkebibliotek,719000,12.371396,Værløse Bibliotek
3520,Farum,Farum Bibliotek,Furesø Bibliotek & Borgerservice,Stavnsholtvej 3,55.81374,Folkebibliotek,719001,12.377128,Farum Bibliotek
3500,Værløse,Hareskov Bibliotek,Furesø Bibliotek & Borgerservice,Poppel alle 12,55.764571,Folkebibliotek,719002,12.402532,Hareskov Bibliotek
3500,Værløse,Værløse Museum og Lokalarkiv,Furesø Bibliotek & Borgerservice,ikke udfyldt,,Folkebibliotek,719003,,Furesø Museum og Lokalarkiv
3450,Allerød,Allerød Bibliotek,Allerød Biblioteker,Skovensvej 4,55.86773,Folkebibliotek,720100,12.354155,Allerød Bibliotek
3540,Lynge,Lynge Bibliotek,Allerød Biblioteker,Hillerødvej 48 C,55.8393163,Folkebibliotek,720101,12.2775605,Lynge Bibliotek
3480,Fredensborg,Fredensborg Bibliotek,Fredensborg Bibliotekerne,Jernbanegade 3,55.9789981,Folkebibliotek,721000,12.3989543,Fredensborg Bibliotek
2990,Nivå,Nivå Bibliotek,Fredensborg Bibliotekerne,Nivå Center 30,55.934494,Folkebibliotek,721001,12.50394,Nivå Bibliotek
3050,Humlebæk,Humlebæk Bibliotek,Fredensborg Bibliotekerne,Humlebæk Center 40,55.964269,Folkebibliotek,721002,12.5293647,Humlebæk Bibliotek
2980,Kokkedal,Kokkedal Cafébibliotek,Fredensborg Bibliotekerne,Holmegaardsvej 101-102,55.909695,Folkebibliotek,721003,12.489103,Kokkedal Cafébibliotek
3000,Helsingør,Helsingør Bibliotek,Helsingør Kommunes Biblioteker,Allegade 2,56.0377711,Folkebibliotek,721700,12.6141173,Biblioteket Kulturværftet
3060,Espergærde,Espergærde Bibliotek,Helsingør Kommunes Biblioteker,Kløvermarken 12,55.9951101,Folkebibliotek,721701,12.5467761,Espergærde Bibliotek
3000,Helsingør,Abildvængets Bibliotek,Helsingør Kommunes Biblioteker,Abildgårdsvej 2,56.030787,Folkebibliotek,721702,12.592127,Abildvængets Bibliotek
3100,Hornbæk,Hornbæk Bibliotek,Helsingør Kommunes Biblioteker,Vestre Stejlebakke 2 A,56.0905393,Folkebibliotek,721703,12.4557533,Hornbæk Bibliotek
3000,Helsingør,Vapnagård Bibliotek,Helsingør Kommunes Biblioteker,Hovmarken 7,56.021911,Folkebibliotek,721704,12.581346,Vapnagård Bibliotek
3140,Ålsgårde,Aktivitetshuset Bølgen,Helsingør Kommunes Biblioteker,Jämtlandsvej 1,56.076667,Folkebibliotek,721707,12.536944,Bølgens Biblioteksservice
3400,Hillerød,Hillerød Bibliotekerne,Hillerød Bibliotekerne,Christiansgade 1 Postboks 252,55.927909,Folkebibliotek,721900,12.300806,Hillerød Bibliotek
3320,Skævinge,Skævinge Bibliotek,Hillerød Bibliotekerne,Hovedgaden 16 C,55.9087417,Folkebibliotek,721902,12.14863,Skævinge
2970,Hørsholm,Hørsholm Bibliotek,Hørsholm Bibliotek,Bibliotekstorvet 1,55.880699,Folkebibliotek,722300,12.497312,Hørsholm Bibliotek
3460,Birkerød,Hovedbiblioteket i Birkerød,Rudersdal Bibliotekerne,Stationsvej 38,55.840465,Folkebibliotek,723000,12.427654,Rudersdal Bibliotekerne. Hovedbiblioteket i Birkerød
2840,Holte,Holte Bibliotek,Rudersdal Bibliotekerne,"Holte Midtpunkt 23, 2. sal",55.811471,Folkebibliotek,723001,12.471455,Holte Bibliotek
2850,Nærum,Nærum Bibliotek,Rudersdal Bibliotekerne,Biblioteksalleen 3,55.816177,Folkebibliotek,723002,12.5397269,Nærum Bibliotek
2950,Vedbæk,Vedbæk Bibliotek,Rudersdal Bibliotekerne,Henriksholms Allé 2,55.852167,Folkebibliotek,723003,12.5598497,Vedbæk Bibliotekscenter
2765,Smørum,Smørum Bibliotek,Egedal Bibliotekerne,Flodvej 68 Smørumnedre,55.7315365,Folkebibliotek,724000,12.3083103,Smørum Bibliotek
3660,Stenløse,Ganløse Bibliotek,Egedal Bibliotekerne,"Toftekildegård Østergade 12, Ganløse",55.792549,Folkebibliotek,724001,12.266358,Ganløse Bibliotek
3660,Stenløse,Stenløse Bibliotek,Egedal Bibliotekerne,Rådhustorvet 2,55.768226,Folkebibliotek,724002,12.1965013,Biblioteket i Stenløse Kulturhus
3650,Ølstykke,Ølstykke Bibliotek,Egedal Bibliotekerne,Østervej 1 A Postbox 162,55.793643,Folkebibliotek,724003,12.147581,Ølstykke Bibliotek
3600,Frederikssund,Frederikssund Bibliotek,Frederikssund Bibliotekerne,Jernbanegade 24,55.8379723,Folkebibliotek,725000,12.0638525,Frederikssund Bibliotek
3630,Jægerspris,Jægerspris Bibliotek,Frederikssund Bibliotekerne,Møllevej 25,55.852574,Folkebibliotek,725001,11.985131,Jægerspris Bibliotek
3550,Slangerup,Slangerup Bibliotek,Frederikssund Bibliotekerne,Kongensgade 18 Postbox 206,55.845994,Folkebibliotek,725002,12.169767,Slangerup Bibliotek
4050,Skibby,Skibby Bibliotek,Frederikssund Bibliotekerne,Nyvej 7 c,55.7489736,Folkebibliotek,725003,11.9542105,Skibby Bibliotek
2670,Greve,Greve,Greve Bibliotek,Hovedbiblioteket Portalen,55.5983284,Folkebibliotek,725300,12.330856,Greve Bibliotek
2690,Karlslunde,Karlslunde Strand,Greve Bibliotek,Karlslunde Parkvej 11,55.5626436,Folkebibliotek,725302,12.2662491,Karlslunde Bibliotek
4030,Tune,Tune,Greve Bibliotek,Tune Center 15,55.596157,Folkebibliotek,725304,12.179258,Tune Bibliotek
4600,Køge,Køge bibliotek,KøgeBibliotekerne,Kirkestræde 18,55.4578346,Folkebibliotek,725900,12.1822443,Køge Bibliotek
4681,Herfølge,Herfølge Bibliotek,KøgeBibliotekerne,Billesborgvej 1 B,55.416913,Folkebibliotek,725902,12.142357,Herfølge Bibliotek
4140,Borup,Borup bibliotek,KøgeBibliotekerne,Parkvej 2,55.5002162,Folkebibliotek,725903,11.9804517,Borup Bibliotek
4632,Bjæverskov,Bjæverskov bibliotekspunkt,KøgeBibliotekerne,"Super Brugsen
Bjæverskov Center",55.457699,Folkebibliotek,725904,12.033552,Bjæverskov Bibliotekspunkt
4623,Ll. Skensved,Ejby bibliotekspunkt,KøgeBibliotekerne,"Ejby Medborgerhus
Gemsevej 19",55.4878305,Folkebibliotek,725905,12.0803269,Ejby Bibliotekspunkt
4600,Køge,Rishøj Minibibliotek,KøgeBibliotekerne,"Rishøjhallen
Skolevej 7",,Folkebibliotek,725906,,Rishøj Minibibliotek
,,,KøgeBibliotekerne,,,Folkebibliotek,725910,,Køge Arrestbibliotek
3300,Frederiksværk,Frederiksværk Bibliotek,Halsnæs Kommune. Bibliotekerne,Torvet 41,55.971932,Folkebibliotek,726000,12.019282,Frederiksværk Hovedbibliotek
3390,Hundested,Hundested Bibliotek,Halsnæs Kommune. Bibliotekerne,Nørregade 61,55.959432,Folkebibliotek,726001,11.852819,Hundested Lokalbibliotek
4000,Roskilde,Roskilde Bibliotekerne,Roskilde Bibliotekerne,Dronning Margrethes Vej 14 Postbox 229,55.64191,Folkebibliotek,726500,12.087845,Roskilde Bibliotek
4000,Roskilde,Roskilde Bogbus,Roskilde Bibliotekerne,"Dronning Margrethes Vej 14
Postbox 229",55.64191,Folkebibliotek,726501,12.087845,Bogbussen
4040,Jyllinge,Jyllinge Bibliotek,Roskilde Bibliotekerne,Bygaden 19 Box 63,55.748496,Folkebibliotek,726502,12.110293,Jyllinge Bibliotek
4000,Roskilde,Gundsømagle,Roskilde Bibliotekerne,"Rosentorvet 8
Gundsømagle",55.7371036,Folkebibliotek,726503,12.1489658,Gundsømagle Bibliotek
4000,Roskilde,Ågerup Bibliotek,Roskilde Bibliotekerne,Gundsølillevej 2 Ågerup,55.693047,Folkebibliotek,726504,12.1608129,Ågerup Bibliotek
4130,Viby Sj.,Viby Sj. Bibliotek,Roskilde Bibliotekerne,Tofthøjvej 11,55.547563,Folkebibliotek,726505,12.02673,Viby Bibliotek
4621,Gadstrup,Gadstrup,Roskilde Bibliotekerne,Nyvej 40,55.573022,Folkebibliotek,726506,12.09189,Gadstrup Bibliotek
2680,Solrød Strand,Solrød Bibliotek,Solrød Bibliotek,Solrød Center 4,55.516667,Folkebibliotek,726900,12.216667,Solrød Bibliotek
4622,Havdrup,Havdrup,Solrød Bibliotek,Møllemarken 6,55.543879,Folkebibliotek,726901,12.115475,Havdrup afhentningssted. Møllemarken 6
3200,Helsinge,Gribskov Biblioteker,Gribskov kommunes biblioteker,Skolegade 43,56.026634,Folkebibliotek,727000,12.192295,Helsinge Bibliotek
3220,Tisvildeleje,Tisvilde åbent bibliotek,Gribskov kommunes biblioteker,Tisvilde Bygade 37,56.056382,Folkebibliotek,727002,12.0914,Skt. Helene Skole Tisvilde. Åbent bibliotek
3210,Vejby,Vejby Servicepunkt,Gribskov kommunes biblioteker,"Sankt Helene Skole,
Femgårdsvej 6",56.0649045,Folkebibliotek,727003,12.1348267,Gribskov Kommunes servicepunkt på Sankt Helene Skole Vejby
3250,Gilleleje,Gilleleje Bibliotek,Gribskov kommunes biblioteker,Peter Fjelstrups Vej 12,56.125847,Folkebibliotek,727004,12.296319,Gilleleje Bibliotek
3230,Græsted,Græsted Bibliotek,Gribskov kommunes biblioteker,Græsted Stationsvej 10 A,56.0669862,Folkebibliotek,727005,12.2819663,BLIK- Græsted Bibliotek
4500,Nykøbing Sjælland,Odsherred Bibliotek,Odsherred Bibliotek og Kulturhuse,Vesterbro Torv,55.9225568,Folkebibliotek,730600,11.6654828,Nykøbing Sj. Bibliotek
4550,Asnæs,Asnæs Bibliotek,Odsherred Bibliotek og Kulturhuse,Centervejen 91,55.8110436,Folkebibliotek,730601,11.5031103,Asnæs Bibliotek
4560,Vig,Vig Bibliotek,Odsherred Bibliotek og Kulturhuse,Ravnsbjergvej 23A,55.8530832,Folkebibliotek,730602,11.5758292,Vig Bibliotek
4534,Hørve,Hørve,Odsherred Bibliotek og Kulturhuse,Vallekildevej 8,55.7525466,Folkebibliotek,730603,11.4533357,Hørve Bibliotek
4581,Rørvig,Rørvig Bibliotek,Odsherred Bibliotek og Kulturhuse,Vestergade 24,55.941375,Folkebibliotek,730604,11.7504198,Rørvig Bibliotek
4583,Sj. Odde,Sjællands Odde,Odsherred Bibliotek og Kulturhuse,Skoletoften 7,,Folkebibliotek,730605,,Odden Bibliotek
4500,Nykøbing Sj.,Egebjerg,Odsherred Bibliotek og Kulturhuse,Egebjerg Hovedgade 30,,Folkebibliotek,730610,,Egebjerg Demokratek
4300,Holbæk,Holbæk Bibliotek,Holbæk Bibliotek,Nygade 9-13,55.7168665,Folkebibliotek,731600,11.7091302,Holbæk Bibliotek
4450,Jyderup,Jyderup Bibliotek,Holbæk Bibliotek,Skarridsøgade 37,55.6598974,Folkebibliotek,731601,11.3983369,Jyderup Bibliotek
4520,Svinninge,Svinninge Bibliotek,Holbæk Bibliotek,Hovedgaden 59,55.7219028,Folkebibliotek,731602,11.4615303,Svinninge Bibliotek
4340,Tølløse,Tølløse Bibliotek,Holbæk Bibliotek,Hjortholmvej 9,55.616226,Folkebibliotek,731603,11.761498,Tølløse Bibliotek
4300,Holbæk,Orø Bibliotek,Holbæk Bibliotek,Bygaden 50,55.766702,Folkebibliotek,731605,11.807179,Orø Bibliotek
4340,Tølløse,Undløse Afhentningssted,Holbæk Bibliotek,"Datastuen
Østergårdsvej 49, Undløse",55.603692,Folkebibliotek,731621,11.587638,Undløse
4690,Haslev,Haslev Bibliotek,Faxe Kommunes Biblioteker & Borgerservice,Jernbanegade 62,55.324601,Folkebibliotek,732000,11.96355,Haslev Bibliotek & Borgerservice
4640,Faxe,Faxe Bibliotek,Faxe Kommunes Biblioteker & Borgerservice,Rådhusvej 4,55.251191,Folkebibliotek,732001,12.120191,Faxe Bibliotek & Borgerservice
4653,Karise,Karise MikroBibliotek,Faxe Kommunes Biblioteker & Borgerservice,"SuperBrugsen, 
Syrenvænget 20",55.303779,Folkebibliotek,732010,12.1992939,Karise MikroBibliotek
4683,Rønnede,Rønnede MikroBibliotek,Faxe Kommunes Biblioteker & Borgerservice,"SuperBest
Vordingborgvej 517",55.259224,Folkebibliotek,732011,12.021819,Rønnede MikroBibliotek
4400,Kalundborg,Kalundborg Bibliotek,Kalundborg Biblioteker,Klostertorvet 2,55.6815781,Folkebibliotek,732600,11.0860766,Kalundborg Bibliotek
4281,Gørlev,Gørlev Bibliotek,Kalundborg Biblioteker,Algade 35,55.539452,Folkebibliotek,732601,11.225361,Gørlev Bibliotek
4270,Høng,Høng Bibliotek,Kalundborg Biblioteker,Odinsvej 27,55.5087632,Folkebibliotek,732602,11.2958073,Høng Bibliotek
4592,Sejerø,Sejerø Bibliotek,Kalundborg Biblioteker,Mastrupvej 18,55.8797104,Folkebibliotek,732603,11.1434117,Sejerø Bibliotek
4490,Jerslev Sj.,Ubby Bibliotek,Kalundborg Biblioteker,Hovedgaden 19,55.620681,Folkebibliotek,732604,11.209156,Ubby Bibliotek
4593,Eskebjerg,Eskebjerg Bibliotek,Kalundborg Biblioteker,Eskebjergvej 67,55.713006,Folkebibliotek,732606,11.301053,Eskebjerg Bibliotek
4470,Svebølle,Svebølle Kvik Bib,Kalundborg Biblioteker,Centervej 13,,Folkebibliotek,732607,,"Svebølle Kvik Bibliotek, Svebølle Aktivitetscenter"
4100,Ringsted,Ringsted Bibliotek,Ringsted Bibliotek,Tværallé 1-3,55.4462543,Folkebibliotek,732900,11.7996316,Ringsted Bibliotek
4100,Ringsted,Bogbussen,Ringsted Bibliotek,Tværallé 1-3,55.4462543,Folkebibliotek,732901,11.7996316,Bogbussen
4200,Slagelse,Slagelse Bibliotek,Slagelse Bibliotekerne,Stenstuegade 3,55.403121,Folkebibliotek,733000,11.35254,Slagelse Bibliotek
4220,Korsør,Korsør Bibliotek,Slagelse Bibliotekerne,Bernstensgade 3,55.337786,Folkebibliotek,733001,11.13568,Korsør Bibliotek
4230,Skælskør,Skælskør  Bibliotek,Slagelse Bibliotekerne,Vestergade 4,55.254125,Folkebibliotek,733002,11.291244,Skælskør Bibliotek
4241,Vemmelev,Vemmelev Servicepunkt ,Slagelse Bibliotekerne,Akacievej 2,55.3637919,Folkebibliotek,733003,11.2597764,Vemmelev Servicepunkt Dagli¿Brugsen
4230,Skælskør,Agersø Bibliotek,Slagelse Bibliotekerne,--,,Folkebibliotek,733004,,Agersø Bibliotek
4230,Skælskør,Omø Bibliotek,Slagelse Bibliotekerne,--,,Folkebibliotek,733005,,Omø Bibliotek
4261,Dalmose,Dalmose Servicepunkt,Slagelse Bibliotekerne,Lodsvej 1,55.2914514,Folkebibliotek,733010,11.4231076,Dalmose Servicepunkt Dagli¿ Brugsen
4660,Store Heddinge,Stevns Bibliotekerne,Stevns Bibliotekerne,Kirketorvet 2,55.312584,Folkebibliotek,733600,12.389713,Store Heddinge Bibliotek
4652,Hårlev,Hårlev Bibliotek,Stevns Bibliotekerne,Bredgade 1,55.350787,Folkebibliotek,733601,12.233255,Hårlev Bibliotek
4600,Køge,Strøby Egede Bibliotek,Stevns Bibliotekerne,Kystvejen 7A,55.416757,Folkebibliotek,733602,12.243619,Strøby Egede Bibliotek
4180,Sorø,Sorø Bibliotek,Sorø Bibliotek,Storgade 7,55.432372,Folkebibliotek,734000,11.5560836,Sorø Bibliotek
4293,Dianalund,Dianalund Bibliotek,Sorø Bibliotek,Sømosevej 44,55.5271989,Folkebibliotek,734001,11.4947972,Dianalund Bibliotek
4295,Stenlille,Afhentningssted Stenlille,Sorø Bibliotek,Hovedgaden 40,55.5395021,Folkebibliotek,734010,11.5902258,Afhentningssted Stenlille Røde Kors Butik
4070,Kirke-Hyllinge,Kirke Hyllinge Bibliotek,Lejre Bibliotekerne,Bygaden 53,55.708438,Folkebibliotek,735000,11.898669,Kirke Hyllinge Bibliotek
4330,Hvalsø,Hvalsø Bibliotek,Lejre Bibliotekerne,Skolevej 12,55.5932207,Folkebibliotek,735001,11.8575913,Hvalsø Bibliotek
4320,Lejre,Osted Bibliotek,Lejre Bibliotekerne,"Langetoften 25, Osted",55.5619859,Folkebibliotek,735002,11.9627256,Osted Bibliotek
4320,Lejre,Lejre Bibliotek,Lejre Bibliotekerne,Stationsvej 2,,Folkebibliotek,735003,,Lejre Bibliotek
4000,Roskilde,Gevninge Bibliotek,Lejre Bibliotekerne,Gevninge Bygade 19,,Folkebibliotek,735004,,Gevninge Bibliotek
4900,Nakskov,Nakskov,LollandBibliotekerne,Søvej 8,54.834957,Folkebibliotek,736000,11.138254,"LollandBibliotekerne, Nakskov"
4930,Maribo,Maribo,LollandBibliotekerne,Østre Landevej 33,54.777015,Folkebibliotek,736001,11.514946,"LollandBibliotekerne, Maribo"
4970,Rødby,Rødbyhavn,LollandBibliotekerne,"Skolegade 1, Rødbyhavn",54.661133,Folkebibliotek,736002,11.354695,"Lollandbibliotekerne, Rødbyhavn Bibliotek"
4920,Søllested,Søllested bibliotekspunkt,LollandBibliotekerne,Jernbanegade 18,54.8109615,Folkebibliotek,736011,11.2683734,LollandBibliotekerne. Søllested bibliotekspunkt: Fakta
4913,Horslunde,Horslunde bibliotekspunkt,LollandBibliotekerne,Hovedgaden 6,54.9101833,Folkebibliotek,736012,11.2170846,LollandBibliotekerne. Horslunde bibliotekspunkt: Horslunde Bageri
4960,Holeby,Holeby bibliotekspunkt,LollandBibliotekerne,Vestervej 3c,54.708818,Folkebibliotek,736013,11.473089,LollandBibliotekerne. Holeby bibliotekspunkt: Dagli' Brugsen
4944,Fejø,Fejø bibliotekspunkt,LollandBibliotekerne,Herredsvej 259,54.9511807,Folkebibliotek,736014,11.4294413,LollandBibliotekerne. Fejø  bibliotekspunkt: Letkøb Fejø
4930,Maribo,Femø bibliotekspunkt,LollandBibliotekerne,Kirkehældevej 29,54.970681,Folkebibliotek,736015,11.531587,LollandBibliotekerne. Femø bibliotekspunkt: Femø præstegård
4952,Stokkemarke,Stokkemarke bibliotekspunkt,LollandBibliotekerne,Vestre Landevej 270,54.8373407,Folkebibliotek,736017,11.366563,LollandBibliotekerne. Stokkemarke bibliotekspunkt: Dagli'Brugsen
4983,Dannemare,Dannemare bibliotekspunkt,LollandBibliotekerne,Bygaden 53,54.760606,Folkebibliotek,736018,11.187368,LollandBibliotekerne. Dannemare bibliotekspunkt: Dagli'Brugsen
4700,Næstved,Næstved Bibliotek,Næstved Bibliotek  og Borgerservice,Kvægtorvet 4-6,55.233164,Folkebibliotek,737000,11.760422,Næstved Bibliotek
4684,Holmegaard,Fensmark Bibliotek,Næstved Bibliotek  og Borgerservice,"Kildegårdsvej 56, Fensmark",55.2784,Folkebibliotek,737001,11.808098,Fensmark Bibliotek
4250,Fuglebjerg,Fuglebjerg  Bibliotek,Næstved Bibliotek  og Borgerservice,Byagervej 1,55.302835,Folkebibliotek,737002,11.543996,Fuglebjerg Bibliotek
4171,Glumsø,Glumsø Bibliotek,Næstved Bibliotek  og Borgerservice,Torvet 1,55.354264,Folkebibliotek,737003,11.690303,Glumsø Bibliotek
4733,Tappernøje,Korskilde Bibliotek,Næstved Bibliotek  og Borgerservice,"Korskildevej 2 A, Brøderup",55.1790671,Folkebibliotek,737005,11.9746628,Korskilde Bibliotek
,,,Næstved Bibliotek  og Borgerservice,,,Folkebibliotek,737013,,Karrebæksminde Bogautomat
,,,Næstved Bibliotek  og Borgerservice,,,Folkebibliotek,737014,,Bogautomat Sct. Jørgens Park
,,,Næstved Bibliotek  og Borgerservice,,,Folkebibliotek,737015,,Materialehotel Næstved Bibliotek
4800,Nykøbing F,Guldborgsund,Guldborgsund-bibliotekerne,Kongens Gade 43,54.7693089,Folkebibliotek,737600,11.8698041,Hovedbiblioteket
4880,Nysted,Nysted,Guldborgsund-bibliotekerne,Adelgade 11,54.669328,Folkebibliotek,737601,11.728738,Nysted Bibliotek
4840,Nørre Alslev,Nørre Alslev Bibliotek,Guldborgsund-bibliotekerne,Helene Strangesvej 1,54.899552,Folkebibliotek,737602,11.873134,Nørre Alslev Bibliotek
4990,Sakskøbing,Sakskøbing,Guldborgsund-bibliotekerne,Rådhusgade 6,54.7977338,Folkebibliotek,737603,11.6353457,Sakskøbing Bibliotek
4850,Stubbekøbing,Stubbekøbing Bibliotek,Guldborgsund-bibliotekerne,Dosseringen 3,54.8913307,Folkebibliotek,737604,12.0413789,Stubbekøbing Bibliotek
4873,Væggerløse,Væggerløse Bibliotek,Guldborgsund-bibliotekerne,Stovbyvej 3,54.712927,Folkebibliotek,737605,11.923891,Væggerløse Bibliotek
4800,Nykøbing F,Gedser,Guldborgsund-bibliotekerne,Kongensgade 43,54.5758245,Folkebibliotek,737607,11.9305815,Servicepunkt Gedser
4760,Vordingborg,Vordingborg Bibliotekerne,Vordingborg Bibliotekerne,Sydhavnsvej 6,54.99743,Folkebibliotek,739000,11.891686,Vordingborg Bibliotek
4780,Stege,Møn Bibliotek,Vordingborg Bibliotekerne,Møllebrøndstræde 12,54.987522,Folkebibliotek,739001,12.288116,Møn Bibliotek
4720,Præstø,Præstø Bibliotek,Vordingborg Bibliotekerne,Lindevej 45,55.1211763,Folkebibliotek,739002,12.0477779,Præstø Bibliotek
4750,Lundby,Lundby Bibliotek,Vordingborg Bibliotekerne,Lundby Hovedgade 100,55.109232,Folkebibliotek,739003,11.879155,Lundby Bibliotek
4760,Vordingborg,Bogbus Vordingborg,Vordingborg Bibliotekerne,Sydhavnsvej 6,54.99743,Folkebibliotek,739004,11.891686,Bogbus Vordingborg
4760,Vordingborg,Servicepunkt VG & HF,Vordingborg Bibliotekerne,Chr. Richardtsvej 45,55.0145585,Folkebibliotek,739011,11.914924,Servicepunkt Vordingborg Gymnasium & HF
3700,Rønne,Rønne Bibliotek,Bornholms Folkebiblioteker,Pingels Alle 1,55.101762,Folkebibliotek,740000,14.707298,"Bornholms Folkebiblioteker, Rønne Bibliotek"
3770,Allinge,Allinge Bibliotek,Bornholms Folkebiblioteker,Sverigesvej 1,55.279969,Folkebibliotek,740001,14.799211,"Bornholms Folkebiblioteker, Allinge Bibliotek"
3760,Gudhjem,Gudhjem Bibliotek,Bornholms Folkebiblioteker,Åbogade 7,55.21197,Folkebibliotek,740002,14.970807,"Bornholms Folkebiblioteker, Gudhjem Bibliotek"
3790,Hasle,Hasle,Bornholms Folkebiblioteker,Kirkegade 4,55.1807085,Folkebibliotek,740003,14.7152359,"Bornholms Folkebiblioteker, Hasle Bibliotek"
3730,Nexø,Nexø Bibliotek,Bornholms Folkebiblioteker,Kildestræde 20,55.0615235,Folkebibliotek,740006,15.1288394,"Bornholms Folkebiblioteker, Nexø Bibliotek"
3740,Svaneke,Svaneke,Bornholms Folkebiblioteker,Borgergade 4,55.136911,Folkebibliotek,740007,15.140331,"Bornholms Folkebiblioteker, Svaneke Bibliotek"
3720,Aakirkeby,Aakirkeby Bibliotek,Bornholms Folkebiblioteker,Hans Rømersvej 27,55.070708,Folkebibliotek,740008,14.92362,"Bornholms Folkebiblioteker, Aakirkeby Bibliotek"
3760,Gudhjem,Christiansø Bibliotek,Bornholms Folkebiblioteker,Christiansø,55.3220752,Folkebibliotek,740009,15.1837394,"Bornholms Folkebiblioteker, Christiansø Bibliotek"
5500,Middelfart,Middelfart,Middelfart Bibliotek,KulturØen Havnegade 6,55.5057034,Folkebibliotek,741000,9.7366813,Middelfart Bibliotek
5500,Middelfart,Strib,Middelfart Bibliotek,Vestergade 16,55.54142,Folkebibliotek,741001,9.763785,Strib Bibliotek
5592,Ejby,Ejby Bibliotek,Middelfart Bibliotek,Anlægsvej 4A,55.43147,Folkebibliotek,741002,9.9332689,Ejby Bibliotek
5580,Nørre Åby,Nørre Aaby Folkebibliotek,Middelfart Bibliotek,Østergade 19,55.459909,Folkebibliotek,741003,9.876438,Nørre Aaby Bibliotek
5610,Assens,Assens Bibliotek,AssensBibliotekerne,Korsvangcentret,55.270035,Folkebibliotek,742000,9.914184,Assens Bibliotek
5620,Glamsbjerg,Glamsbjerg Bibliotek,AssensBibliotekerne,Søndergade 3 A,55.2785539,Folkebibliotek,742001,10.1052147,Glamsbjerg Lokalbibliotek
5683,Haarby,Haarby Bibliotek,AssensBibliotekerne,Skolevej 10 A,55.222348,Folkebibliotek,742002,10.1243079,Hårby Lokalbibliotek
5690,Tommerup,Tommerup Bibliotek,AssensBibliotekerne,Tallerupvej 85,55.340236,Folkebibliotek,742003,10.18116,Tommerup Lokalbibliotek
5492,Vissenbjerg,Vissenbjerg Bibliotek,AssensBibliotekerne,Vestergade 2,55.3852754,Folkebibliotek,742004,10.1313915,Vissenbjerg Lokalbibliotek
5560,Aarup,Aarup Bibliotek,AssensBibliotekerne,Bredgade 73,55.3786736,Folkebibliotek,742005,10.047568,Årup Lokalbibliotek
5600,Faaborg,Faaborg Bibliotek,Faaborg-Midtfyn Bibliotekerne,Herregårdscentret,55.1012989,Folkebibliotek,743000,10.2407226,Faaborg Bibliotek
5750,Ringe,Ringe Bibliotek,Faaborg-Midtfyn Bibliotekerne,Algade 40,55.237028,Folkebibliotek,743001,10.4792076,Ringe Bibliotek
5792,Årslev,Årslev Bibliotek,Faaborg-Midtfyn Bibliotekerne,Kirkevej 14,55.3083181,Folkebibliotek,743002,10.4901691,Årslev Bibliotek
5672,Broby,Broby Bibliotek,Faaborg-Midtfyn Bibliotekerne,Egeballe 4 A,55.256033,Folkebibliotek,743003,10.235524,Broby Bibliotek
5600,Faaborg,Lyø Bibliotek,Faaborg-Midtfyn Bibliotekerne,Lyø,,Folkebibliotek,743006,,Lyø Bibliotek
5330,Munkebo,Kerteminde Bibliotekerne,Kerteminde Bibliotekerne,Lindøalléen 47,55.4591045,Folkebibliotek,744000,10.5582028,Munkebo Bibliotek
5300,Kerteminde,Kerteminde Bibliotek,Kerteminde Bibliotekerne,Strandvejen 4-6,55.4492163,Folkebibliotek,744001,10.6575406,Kerteminde Bibliotek
5550,Langeskov,Langeskov Bibliotek,Kerteminde Bibliotekerne,Jernbanegade 14,55.3600957,Folkebibliotek,744002,10.5916411,Langeskov Bibliotek
5800,Nyborg,Nyborg Bibliotek,Nyborg Bibliotek,Torvet,55.3128806,Folkebibliotek,745000,10.7892488,Nyborg Bibliotek
5540,Ullerslev,Ullerslev  Bibliotek,Nyborg Bibliotek,Skolevej 2,55.359899,Folkebibliotek,745001,10.6709859,Ullerslev Bibliotek
5853,Ørbæk,Ørbæk Bibliotek,Nyborg Bibliotek,"Ørbæk Midtpunkt,
Langemosevej 5",55.253823,Folkebibliotek,745002,10.674902,Ørbæk Bibliotek
5000,Odense C,Hovedbiblioteket,Odense Bibliotekerne,Østre Stationsvej 15,55.40116,Folkebibliotek,746100,10.388635,Odense Bibliotekerne
5200,Odense V.,Bolbro Bibliotek,Odense Bibliotekerne,Middelfartvej 81,55.394197,Folkebibliotek,746102,10.35157,Bolbro Bibliotek
5250,Odense SV,Dalum Bibliotek,Odense Bibliotekerne,Dalumvej 95,55.365681,Folkebibliotek,746103,10.373476,Dalum Bibliotek
5260,Odense S,Højby Bibliotek,Odense Bibliotekerne,Nørrelunden 20,55.332962,Folkebibliotek,746104,10.44119,Højby Bibliotek
5000,Odense C,Lokalhistorisk Bibliotek,Odense Bibliotekerne,Klosterbakken 2,,Folkebibliotek,746105,,Lokalhistorisk Bibliotek
5000,Odense C,Musikbiblioteket,Odense Bibliotekerne,Østre Stationsvej 33,55.3998169,Folkebibliotek,746106,10.38157,Musikbiblioteket
5210,Odense NV,Tarup Bibliotek,Odense Bibliotekerne,Rugvang 40,55.410381,Folkebibliotek,746110,10.33609,Tarup Bibliotek
5240,Odense NØ,Vollsmose Bibliotek,Odense Bibliotekerne,Vollsmose Alle 10,55.4067885,Folkebibliotek,746111,10.441249,Vollsmose Bibliotek
5220,Odense SØ,Holluf Pile Bibliotek,Odense Bibliotekerne,Nøglens Kvarter 10,55.3660934,Folkebibliotek,746112,10.4496394,Holluf Pile Bibliotek
5210,Odense NV,Korup Bibliotek,Odense Bibliotekerne,Præstevej 12,55.4216361,Folkebibliotek,746113,10.2664359,Korup Bibliotek
5700,Svendborg,Svendborg Bibliotek,Svendborg Bibliotek,Svinget 1,55.0616454,Folkebibliotek,747900,10.6028347,Svendborg Bibliotek
5700,Svendborg.,"Thurø Bibliotek,",Svendborg Bibliotek,"Bergmannsvej 25,",55.0482152,Folkebibliotek,747901,10.6700866,Thurø Bibliotek
5881,Skårup,"Skårup Bibliotek,",Svendborg Bibliotek,Åbyvejen 43,55.09382,Folkebibliotek,747902,10.6891269,Skårup Bibliotek
5700,Svendborg,Landet Bibliotek,Svendborg Bibliotek,"Biblioteksvej 1, Landet,",54.998477,Folkebibliotek,747904,10.596785,Landet Bibliotek
5700,Svendborg.,Drejø Bibliotek,Svendborg Bibliotek,Drejø,54.9702467,Folkebibliotek,747906,10.4190476,Drejø Bibliotek
5884,Gudme,Gudme Bibliotek,Svendborg Bibliotek,Højsagervej 6,55.1528528,Folkebibliotek,747907,10.7070899,Gudme Bibliotek
5771,Stenstrup,Stenstrup Bibliotek,Svendborg Bibliotek,Skolevej 2,55.132434,Folkebibliotek,747908,10.502222,Stenstrup Bibliotek
5762,Vester Skerninge,Vester Skerninge Bibliotek,Svendborg Bibliotek,Fåborgvej 53,55.0732223,Folkebibliotek,747909,10.4492831,Vester Skerninge Bibliotek
5450,Otterup,Otterup Bibliotek,Bibliotek og Borgerservice Nordfyns Kommune,Søndergade 2,55.51501,Folkebibliotek,748000,10.399024,Otterup Bibliotek
5471,Søndersø,Søndersø Bibliotek,Bibliotek og Borgerservice Nordfyns Kommune,Odensevej 8,55.485419,Folkebibliotek,748001,10.251064,Søndersø Bibliotek
5400,Bogense,Bogense Bibliotek,Bibliotek og Borgerservice Nordfyns Kommune,Vestergade 24,55.5640197,Folkebibliotek,748002,10.0883486,Bogense Bibliotek
5900,Rudkøbing,Langeland Bibliotek,Langeland Bibliotek,Østerport 5-7,54.935363,Folkebibliotek,748200,10.717631,Langeland Bibliotek
5900,Rudkøbing,Langeland Bogbil,Langeland Bibliotek,Østerport 5-7,54.935363,Folkebibliotek,748210,10.717631,Langeland Biblioteks Bogbil
5970,Ærøskøbing,Ærøskøbing Bibliotek,Ærø Folkebibliotek,Søndergade 16B,54.8877595,Folkebibliotek,749200,10.4111674,Ærø Folkebibliotek
5960,Marstal,Marstal Bibliotek,Ærø Folkebibliotek,Skolegade 28,54.8535433,Folkebibliotek,749201,10.5187728,Marstal Bibliotek
6100,Haderslev,Haderslev Bibliotek,Haderslev Bibliotekerne,Bispebroen 3,55.250414,Folkebibliotek,751000,9.484711,Haderslev Bibliotek
6510,Gram,Gram Bibliotek,Haderslev Bibliotekerne,Østergade 10,55.2870143,Folkebibliotek,751001,9.0508825,Gram Bibliotek
6500,Vojens,Vojens Bibliotek,Haderslev Bibliotekerne,Rådhuscentret 7,55.2448007,Folkebibliotek,751002,9.293324,Vojens Bibliotek
7200,Grindsted,Magion Biblioteket,Billund Bibliotekerne og Borgerservice,Tinghusgade 15,55.7529351,Folkebibliotek,753000,8.9212072,Magion Bibliotek
7190,Billund,Billund Bibliotek,Billund Bibliotekerne og Borgerservice,Hans Jensens Vej 6,55.7306555,Folkebibliotek,753001,9.1180936,Billund Bibliotek
6623,Vorbasse,Vorbasse Bibliotek,Billund Bibliotekerne og Borgerservice,Drivvejen 1,55.6272591,Folkebibliotek,753002,9.0819464,Vorbasse Bibliotek
7260,Sdr. Omme,Sdr. Omme Bibliotek,Billund Bibliotekerne og Borgerservice,Stadion Alle 16,55.840727,Folkebibliotek,753003,8.891382,Sdr. Omme Bibliotek
6400,Sønderborg,Sønderborg,Biblioteket Sønderborg,Kongevej 19-27,54.910175,Folkebibliotek,754000,9.7961639,Biblioteket Sønderborg
6440,Augustenborg,Augustenborg,Biblioteket Sønderborg,Kettingvej 1 a,54.9466504,Folkebibliotek,754001,9.8725239,Biblioteket Augustenborg
6310,Broager,Broager,Biblioteket Sønderborg,Storegade 6 A,54.889586,Folkebibliotek,754002,9.674497,Biblioteket Broager
6400,Sønderborg,Dybbøl,Biblioteket Sønderborg,Gammel Aabenraavej 20A,54.911066,Folkebibliotek,754003,9.766716,Biblioteket Dybbøl
6300,Gråsten,Gråsten,Biblioteket Sønderborg,Ahlefeldvej 4,54.919526,Folkebibliotek,754004,9.5905919,Biblioteket Gråsten
6430,Nordborg,Guderup,Biblioteket Sønderborg,Skolegade 21,54.991824,Folkebibliotek,754005,9.863988,Guderup
6430,Nordborg,Nordborg,Biblioteket Sønderborg,Løjtertoft 7,55.056813,Folkebibliotek,754006,9.7491,Biblioteket Nordborg
6400,Sønderborg,Vester Sottrup,Biblioteket Sønderborg,"Skolevej 8,
Vester Sottrup",54.949691,Folkebibliotek,754007,9.699548,Biblioteket Sottrup
6470,Sydals,Hørup,Biblioteket Sønderborg,Knøs Gård 1,54.9141624,Folkebibliotek,754008,9.8939423,Biblioteket Hørup
6400,Sønderborg,Ulkebøl,Biblioteket Sønderborg,"Torvet 14, Ulkebøl",54.9244842,Folkebibliotek,754009,9.8218802,Biblioteket Ulkebøl
6440,Augustenborg,Fynshav,Biblioteket Sønderborg,"Gyden 96
Fynshav",54.981904,Folkebibliotek,754010,9.973299,Fynshav
6270,Tønder,Tønder Bibliotek,Tønder Kommunes Biblioteker,Richtsensgade 10,54.937416,Folkebibliotek,755000,8.86881,Tønder Bibliotek
6261,Bredebro,Bredebro Afhentningssted,Tønder Kommunes Biblioteker,Langagervej 64,,Folkebibliotek,755001,,Bredebro Afhentningssted
6280,Højer,Højer Afhentningssted,Tønder Kommunes Biblioteker,Kirkegårdsgade 3,,Folkebibliotek,755002,,Højer Afhentningssted
6240,Løgumkloster,Løgumkloster Bibliotek,Tønder Kommunes Biblioteker,Storegade 16,55.058407,Folkebibliotek,755003,8.9517149,Løgumkloster Bibliotek
6780,Skærbæk,Skærbæk Bibliotek,Tønder Kommunes Biblioteker,Jernbanegade 2,55.1581825,Folkebibliotek,755004,8.7693312,Skærbæk Bibliotek
6520,Toftlund,Toftlund Bibliotek,Tønder Kommunes Biblioteker,Toldbodgade 8,55.1920345,Folkebibliotek,755005,9.0607401,Toftlund Bibliotek
6700,Esbjerg,Esbjerg Hovedbibliotek,Esbjerg Kommunes Biblioteker,Nørregade 19,55.469201,Folkebibliotek,756100,8.454726,Esbjerg Hovedbibliotek
6710,Esbjerg V.,Sædding,Esbjerg Kommunes Biblioteker,"Sædding Centret, Tarphagevej",55.498485,Folkebibliotek,756101,8.4077023,Sædding Bibliotek
6705,Esbjerg Ø,Kvaglund,Esbjerg Kommunes Biblioteker,"Kvaglund Centret, Kvaglundparken 12",55.4944916,Folkebibliotek,756102,8.4865076,Kvaglund Bibliotek
6731,Tjæreborg,Tjæreborg,Esbjerg Kommunes Biblioteker,Skolevej 44,55.4633716,Folkebibliotek,756103,8.5839621,Tjæreborg Bibliotek
6720,Fanø,"Nordby, Fanø",Esbjerg Kommunes Biblioteker,"Nordby Skole,
Stadionvej 17",55.4458849,Folkebibliotek,756116,8.395245,Nordby Bibliotek
6720,Fanø,Sønderho Bibliotek,Esbjerg Kommunes Biblioteker,Landevejen 35-41,55.3498956,Folkebibliotek,756117,8.4685652,Sønderho Bibliotek
6701,Esbjerg,Bogbussen,Esbjerg Kommunes Biblioteker,Nørregade 19,55.469201,Folkebibliotek,756120,8.454726,Bogbus
6760,Ribe,Ribe Bibliotek,Esbjerg Kommunes Biblioteker,Simon Hansens Vej 1,55.331276,Folkebibliotek,756121,8.773581,Ribe Bibliotek
6740,Bramming,Bramming Bibliotek,Esbjerg Kommunes Biblioteker,Sct. Knuds Alle 2,55.465751,Folkebibliotek,756122,8.703061,Bramming Bibliotek
6800,Varde,Varde Bibliotek,Varde Bibliotek,Rådhusstræde 2,55.619605,Folkebibliotek,757300,8.479888,Varde Bibliotek
6840,Oksbøl,Oksbøl,Varde Bibliotek,Vestergade 29,55.6246442,Folkebibliotek,757301,8.2758978,Oksbøl Bibliotek
6830,Nørre Nebel,Nørre Nebel,Varde Bibliotek,Sønder Allé 21,55.77804,Folkebibliotek,757302,8.294803,Nr. Nebel Bibliotek
6800,Varde,Bogbussen,Varde Bibliotek,Rådhusstræde 2,55.619605,Folkebibliotek,757304,8.479888,Bogbussen
6753,Agerbæk,Agerbæk,Varde Bibliotek,Kærvej 2,55.599423,Folkebibliotek,757305,8.80186,Agerbæk Bibliotek
6870,Ølgod,Ølgod  Bibliotek,Varde Bibliotek,Vestergade 5,55.8081156,Folkebibliotek,757306,8.6170693,Ølgod Bibliotek
6600,Vejen,Vejen Bibliotek,Vejen Kommunes Biblioteker,Rådhuspassagen 8,55.4770455,Folkebibliotek,757500,9.1373525,Vejen Bibliotek
6650,Brørup,Brørup Bibliotek,Vejen Kommunes Biblioteker,"Stadionvej 6
Postbox 105",55.4828152,Folkebibliotek,757510,9.0184843,Brørup Bibliotek
6670,Holsted,Holsted,Vejen Kommunes Biblioteker,Højmarksvej 18,55.499229,Folkebibliotek,757520,8.913868,Holsted Bibliotek
6630,Rødding,Rødding Bibliotek,Vejen Kommunes Biblioteker,Søndergyden 15,55.365629,Folkebibliotek,757530,9.053921,Rødding Bibliotek
6600,Vejen,Vejen Bogbus,Vejen Kommunes Biblioteker,"Rådhuspassagen 8
Postbox 223",55.479224,Folkebibliotek,757533,9.137997,Vejen Bogbus
6200,Aabenraa,Aabenraa Bibliotek,Aabenraa Bibliotekerne,Haderslevvej 3,55.049899,Folkebibliotek,758000,9.420663,Aabenraa Bibliotek
6330,Padborg,Bov Bibliotek,Aabenraa Bibliotekerne,Bovvej 4,54.82788,Folkebibliotek,758001,9.3643059,Bov Bibliotek
6230,Rødekro,Rødekro Bibliotek,Aabenraa Bibliotekerne,Vestergade 20,55.072696,Folkebibliotek,758002,9.330898,Rødekro Bibliotek
6360,Tinglev,Tinglev Bibliotek,Aabenraa Bibliotekerne,Tinglev Midt,54.9357554,Folkebibliotek,758003,9.2510123,Tinglev Bibliotek
6200,Aabenraa,Felsted Bibliotek,Aabenraa Bibliotekerne,"Gråstenvej 12
Felsted",54.979424,Folkebibliotek,758004,9.4973986,Felsted Bibliotek
,,,Aabenraa Bibliotekerne,,,Folkebibliotek,758006,,Arena Aabenraa
7000,Fredericia,Fredericia Bibliotek,Fredericia Bibliotek,Prinsessegade 27,55.5668406,Folkebibliotek,760700,9.7578662,Fredericia Bibliotek
,,,Fredericia Bibliotek,,,Folkebibliotek,760702,,Medborgerhuset Korskær
7000,Fredericia,Taulov Bibliotek,Fredericia Bibliotek,"Højdedraget 2, Taulov",55.5389708,Folkebibliotek,760706,9.6095795,Taulov Bibliotek
7000,Fredericia,Erritsø afhentningssted,Fredericia Bibliotek,Krogsagervej 42,55.5410924,Folkebibliotek,760710,9.7106136,Erritsø-hallen afhentningssted
7000,Fredericia,Bredstrup-Pjedsted,Fredericia Bibliotek,Ågade 70 ,,Folkebibliotek,760711,,Bredstrup-Pjedsted
8700,Horsens,Horsens Bibliotek,Horsens Bibliotek,"Tobaksgården 12
Postbox 521",55.8581302,Folkebibliotek,761500,9.8475881,Horsens Bibliotek
8740,Brædstrup,Brædstrup Bibliotek,Horsens Bibliotek,Niels Wonges Vej 5,55.9738175,Folkebibliotek,761501,9.6097617,Brædstrup Bibliotek
8700,Horsens,Endelave,Horsens Bibliotek,"Kongevejen 30, Endelave",55.758652,Folkebibliotek,761502,10.276579,Endelave Bibliotek
8732,Hovedgård,Hovedgård Bibliotek,Horsens Bibliotek,Stationsvej 4,55.945973,Folkebibliotek,761503,9.9620979,Hovedgård Bibliotek
8751,Gedved,Gedved Bibliotek,Horsens Bibliotek,Kirkevej 16,55.931337,Folkebibliotek,761504,9.851996,Gedved Bibliotek
8752,Østbirk,Østbirk Bibliotek,Horsens Bibliotek,Peder Skrams Plads,55.9677728,Folkebibliotek,761505,9.7499507,Østbirk Bibliotek
8700,Horsens,Søvind Bibliotek,Horsens Bibliotek,"Ravnebjerget 12, Søvind",55.8965641,Folkebibliotek,761506,10.0015836,Søvind Bibliotek
6000,Kolding,Kolding Bibliotek,Koldingbibliotekerne,"Slotsmøllen
Slotssøvejen 4",55.491453,Folkebibliotek,762100,9.480069,Kolding Bibliotek
6640,Lunderskov,Lunderskov Bibliotek,Koldingbibliotekerne,Kobbelvænget 2,55.480407,Folkebibliotek,762102,9.292804,Lunderskov Bibliotek
6070,Christiansfeld,Christiansfeld Bibliotek,Koldingbibliotekerne,Gl. Kongevej 3,55.3547123,Folkebibliotek,762103,9.4859345,Christiansfeld Bibliotek
6580,Vamdrup,Vamdrup Bibliotek,Koldingbibliotekerne,Jernbanegade 1,55.426471,Folkebibliotek,762104,9.283146,Vamdrup Bibliotek
6040,Egtved,V. Nebel  Biblioteksstation,Koldingbibliotekerne,"Dagli'Brugsen
Koldingvej 2",55.5676728,Folkebibliotek,762105,9.4011434,Vester Nebel Biblioteksautomat
6051,Alminde,Alminde Biblioteksstation,Koldingbibliotekerne,Sysselbjergvej 6,55.56477,Folkebibliotek,762106,9.489804,Alminde Biblioteksautomat
6091,Bjert,Sdr. Bjert Biblioteksautomat,Koldingbibliotekerne,Vesterløkke 5,55.4579813,Folkebibliotek,762107,9.5575442,Sdr.Bjert Biblioteksautomat
6064,Jordrup,Jordrup Biblioteksautomat,Koldingbibliotekerne,Hovedgaden 43,55.553925,Folkebibliotek,762108,9.312341,Jordrup Biblioteksautomat
6094,Hejls,Hejls Biblioteksautomat,Koldingbibliotekerne,Hejls Landevej 34,55.382884,Folkebibliotek,762109,9.578189,Hejls Biblioteksautomat
7100,Vejle,Vejle Bibliotekerne,Vejle Bibliotekerne,Willy Sørensens Plads 1,55.706406,Folkebibliotek,763000,9.520034,Vejle Bibliotek
7323,Give,Give Bibliotek,Vejle Bibliotekerne,Rådhusbakken 9,55.8438412,Folkebibliotek,763001,9.2370145,Give Bibliotek
7300,Jelling,Jelling Bibliotek,Vejle Bibliotekerne,Møllegade 10,55.754741,Folkebibliotek,763002,9.418115,Jelling Bibliotek
6040,Egtved,Egtved Bibliotek,Vejle Bibliotekerne,Tybovej 2,55.6204166,Folkebibliotek,763003,9.3103449,Egtved Bibliotek
7080,Børkop,Børkop Bibliotek,Vejle Bibliotekerne,Ågade 6,55.6437287,Folkebibliotek,763004,9.6541861,Børkop Bibliotek
7100,Vejle,Vejle Bogbussen,Vejle Bibliotekerne,Willy Sørensens Plads 1,55.706406,Folkebibliotek,763005,9.520034,Biblioteksbussen
7400,Herning,Biblioteket i Herning,Herning Bibliotekerne,Østergade 8,56.136,Folkebibliotek,765700,8.977069,Biblioteket i Herning
7400,Herning,Biblioteket i Hammerum,Herning Bibliotekerne,"Højgade 2C,
Hammerum",56.134189,Folkebibliotek,765703,9.062908,Biblioteket i Hammerum
7451,Sunds,Biblioteket i Sunds,Herning Bibliotekerne,Sunds Hovedgade 50-52,56.2041173,Folkebibliotek,765704,9.0165687,Biblioteket i Sunds
7480,Vildbjerg,Biblioteket i Vildbjerg,Herning Bibliotekerne,Kirkegade 7,56.1980564,Folkebibliotek,765705,8.7662709,Biblioteket i Vildbjerg
7490,Aulum,Biblioteket i Aulum,Herning Bibliotekerne,Markedspladsen 1,56.265547,Folkebibliotek,765707,8.797607,Biblioteket i Aulum
6933,Kibæk,Biblioteket i Kibæk,Herning Bibliotekerne,Solbakken 30,56.027692,Folkebibliotek,765708,8.852654,Biblioteket i Kibæk
7400,Herning,Arnborg,Herning Bibliotekerne,Greenvej 1,56.014285,Folkebibliotek,765711,8.993614,Arnborg afhentningssted
7330,Brande,Fasterholt,Herning Bibliotekerne,Arnborgvej 11,56.007655,Folkebibliotek,765712,9.1092681,Fasterholt afhentningssted
7540,Haderup,Feldborg,Herning Bibliotekerne,Langgade 62,56.341509,Folkebibliotek,765713,8.940693,Feldborg afhentningssted
7540,Haderup,Haderup,Herning Bibliotekerne,Nygade 9,56.3891871,Folkebibliotek,765714,8.9959455,Haderup afhentningssted
7400,Herning,Haunstrup,Herning Bibliotekerne,Haunstrup Hovedgade 46,56.1202565,Folkebibliotek,765715,8.8058854,Haunstrup afhentningssted
7490,Aulum,Hodsager,Herning Bibliotekerne,Hovedgaden 31,56.3141243,Folkebibliotek,765716,8.8560646,Hodsager afhentningssted
7400,Herning,Herning Gymnasium,Herning Bibliotekerne,H. P. Hansens Vej 8,56.146791,Folkebibliotek,765717,8.978302,Herning Gymnasium afhentningssted
7451,Sunds,Ilskov,Herning Bibliotekerne,Birkeskovvej 6,56.2382741,Folkebibliotek,765718,9.0896467,Ilskov afhentningssted
6933,Kibæk,Karstoft,Herning Bibliotekerne,Blåhøjvej 60,55.9338632,Folkebibliotek,765719,8.9408936,Karstoft afhentningssted
7400,Herning,Kølkær,Herning Bibliotekerne,Søbysøvej 7A,56.062091,Folkebibliotek,765720,9.084503,Kølkær afhentningssted
7451,Sunds,Simmelkær,Herning Bibliotekerne,Hodsagervej 33A,56.2704373,Folkebibliotek,765721,8.995043,Simmelkær afhentningssted
7400,Herning,Sinding,Herning Bibliotekerne,Skoletoften 7,56.21292,Folkebibliotek,765722,8.851267,Sinding afhentningssted
6933,Kibæk,Skarrild,Herning Bibliotekerne,Hovedgaden 47,55.9778872,Folkebibliotek,765723,8.8979109,Skarrild afhentningssted
7280,Sdr. Felding,Sdr. Felding,Herning Bibliotekerne,Bredgade 25,55.941253,Folkebibliotek,765724,8.78326,Sdr. Felding afhentningssted
7270,Stakroge,Stakroge,Herning Bibliotekerne,Borgergade 28,55.890531,Folkebibliotek,765725,8.847594,Stakroge afhentningssted
7550,Sørvad,Sørvad,Herning Bibliotekerne,Langgade 30,56.262466,Folkebibliotek,765726,8.652268,Sørvad afhentningssted
6973,Ørnhøj,Ørnhøj,Herning Bibliotekerne,Hovedgaden 54,56.1998468,Folkebibliotek,765727,8.5650776,Ørnhøj afhentningssted
7480,Vildbjerg,Skibbild,Herning Bibliotekerne,Skjoldsvej 1,56.1694596,Folkebibliotek,765728,8.8469003,Skibbild  afhentningssted
7500,Holstebro,Vind,Herning Bibliotekerne,Holstebrovej 20,56.2596186,Folkebibliotek,765729,8.5663623,Vind LandsbyCenter afhentningssted
,,,Herning Bibliotekerne,,,Folkebibliotek,765730,,Lokalhistorisk Arkiv i Herning
7500,Holstebro,Holstebro Bibliotek,Holstebro Bibliotek,Kirkestræde 13,56.3603032,Folkebibliotek,766100,8.616229,Holstebro Bibliotek
6990,Ulfborg,Ulfborg Bibliotek,Holstebro Bibliotek,Bredgade 3,56.272416,Folkebibliotek,766102,8.321566,Ulfborg Bibliotek
7830,Vinderup,Vinderup Bibliotek,Holstebro Bibliotek,Grønningen 1,56.4768319,Folkebibliotek,766103,8.7829889,Vinderup Bibliotek
7620,Lemvig,Lemvig Bibliotek,Lemvig Bibliotek,Skolegade 3,56.5493317,Folkebibliotek,766500,8.3097157,Lemvig Bibliotek
7620,Lemvig,Bogbussen,Lemvig Bibliotek,Skolegade 3,56.5493317,Folkebibliotek,766501,8.3097157,Bogbussen
7600,Struer,Struer Bibliotek,Struer Bibliotek,"Smedegade 1
Postbox 514",56.48493,Folkebibliotek,767100,8.589933,Struer
7790,Thyholm,Thyholm Bibliotek,Struer Bibliotek,Rughavevej 5,56.650866,Folkebibliotek,767103,8.533999,Thyholm Bibliotek
8400,Ebeltoft,Ebeltoft Bibliotek,Syddjurs Bibliotek,Vestervej 17,56.193381,Folkebibliotek,770600,10.669748,Ebeltoft Bibliotek
8543,Hornslet,Hornslet Bibliotek,Syddjurs Bibliotek,Tingvej 35,56.318495,Folkebibliotek,770601,10.3153279,Hornslet Bibliotek
8560,Kolind,Kolind Bibliotek,Syddjurs Bibliotek,Bugtrupvej 31,56.360955,Folkebibliotek,770602,10.577498,Kolind Bibliotek
8410,Rønde,Rønde Bibliotek,Syddjurs Bibliotek,Skolevej 12-14,56.302892,Folkebibliotek,770603,10.474459,Rønde Bibliotek
8400,Ebeltoft,Syddjurs Bogbus,Syddjurs Bibliotek,Vestervej 17,56.196327,Folkebibliotek,770604,10.677857,Ebeltoft Bogbus
8544,8544 Mørke,Dagli'brugsen Lime,Syddjurs Bibliotek,Limegårdsvej 4,,Folkebibliotek,770607,,Dagli'brugsen Lime
8550,Ryomgård,Dagli'brugsen Pindstrup,Syddjurs Bibliotek,Storegade 62,,Folkebibliotek,770608,,Dagli'brugsen Pindstrup
8550,Ryomgård,Midtdjurshallen,Syddjurs Bibliotek,Marienhoffvej 13 C ,,Folkebibliotek,770609,,Midtdjurshallen
8500,Grenaa,Grenaa Bibliotek,Norddjurs Biblioteker,N. P. Josiassensvej 17,56.410611,Folkebibliotek,770700,10.88689,Grenaa Bibliotek
8586,Ørum Djurs,Ørum Bibliotek,Norddjurs Biblioteker,Skolebakken 43,56.4403588,Folkebibliotek,770701,10.6874979,Ørum Bibliotek
,,,Norddjurs Biblioteker,,,Folkebibliotek,770702,,Anholt Bibliotek
8963,Auning,Auning Bibliotek,Norddjurs Biblioteker,Torvegade 1A,,Folkebibliotek,770706,,Auning Bibliotek
8950,Ørsted,Ørsted Bibliotek,Norddjurs Biblioteker,Rougsøvej 73B,,Folkebibliotek,770707,,Ørsted Bibliotek
8961,Allingåbro,Allingåbro Servicepunkt,Norddjurs Biblioteker,"Dagli' Brugsen, Hovedgaden 80  
",,Folkebibliotek,770720,,Allingåbro Servicepunkt
8585,Glesborg,Bønnerup Servicepunkt,Norddjurs Biblioteker,"Bønnerup Kulturcafé,
Skibsbyggervej 17",,Folkebibliotek,770721,,Bønnerup Servicepunkt
8585,Glesborg,Fjellerup Servicepunkt,Norddjurs Biblioteker,"Complet
Strandvejen 17",,Folkebibliotek,770722,,Fjellerup Servicepunkt
8500,Grenaa,Gjerrild Servicepunkt,Norddjurs Biblioteker,"Focus
Stokkebro 77",,Folkebibliotek,770723,,Gjerrild Servicepunkt
8570,Trustrup,Trustrup Servicepunkt,Norddjurs Biblioteker,"OK Plus
""Soltanken""
Århusvej 192",,Folkebibliotek,770724,,Trustrup Servicepunkt
8961,Allingåbro,Vivild Servicepunkt,Norddjurs Biblioteker,"Super Spar
Langgade 43",,Folkebibliotek,770725,,Vivild Servicepunkt
8961,Allingåbro,Nørager Servicepunkt,Norddjurs Biblioteker,"Min Købmand
Munkehusevej 9
Nørager",,Folkebibliotek,770726,,Nørager Servicepunkt
8382,Hinnerup,Hinnerup Bibliotek og Kulturhu,Favrskov Bibliotekerne,"Skovvej 18
Postbox 70",56.2650022,Folkebibliotek,771000,10.0633759,Hinnerup Bibliotek
8450,Hammel,Hammel,Favrskov Bibliotekerne,Dalvej 1,56.256876,Folkebibliotek,771001,9.860022,Hammel Bibliotek
8370,Hadsten,Hadsten Bibliotek,Favrskov Bibliotekerne,Evald Tangs Allé 45,56.325725,Folkebibliotek,771002,10.044932,Hadsten Bibliotek
8860,Ulstrup,Ulstrup Bibliotek,Favrskov Bibliotekerne,Hovedgaden 60,56.387301,Folkebibliotek,771003,9.78821,Ulstrup Bibliotek
8300,Odder,Odder Bibliotek,Odder Bibliotek,Mejerivej 14,55.973865,Folkebibliotek,772700,10.152563,Odder Bibliotek
,,,Odder Bibliotek,,,Folkebibliotek,772705,,Tunø Bibliotek
8900,Randers C,Randers Bibliotek,Randers Bibliotek,"Stemannsgade 2
Postbox 917",56.4635786,Folkebibliotek,773000,10.0344155,Randers Bibliotek
8930,Randers NØ,Randers Bibliotek Øst,Randers Bibliotek,Udbyhøjvej 81,56.471814,Folkebibliotek,773001,10.06571,Randers Bibliotek Øst
8960,Randers SØ,Randers Bibliotek Syd,Randers Bibliotek,Kristrupvej 68,56.446897,Folkebibliotek,773002,10.056528,Randers Bibliotek Syd
8900,Randers C,Bogbus,Randers Bibliotek,"Stemannsgade 2
Postbox 917",56.4635786,Folkebibliotek,773004,10.0344155,Bogbus
8870,Langå,Langå Bibliotek,Randers Bibliotek,Bredgade 4,56.39174,Folkebibliotek,773005,9.89408,Langå Bibliotek
8600,Silkeborg,Silkeborg Bibliotekerne,Silkeborg Bibliotekerne,Hostrupsgade 41 A,56.176362,Folkebibliotek,774000,9.5549216,Silkeborg Bibliotek
8620,Kjellerup,Kjellerup Bibliotek,Silkeborg Bibliotekerne,Tinghusvej 16,56.287432,Folkebibliotek,774001,9.42866,Kjellerup Bibliotek
8653,Them,Them Bibliotek,Silkeborg Bibliotekerne,Silkeborgvej 33,56.0924471,Folkebibliotek,774003,9.5481803,Them Bibliotek
8883,Gjern,Gjern Bibliotek,Silkeborg Bibliotekerne,Skovvejen 6,56.224488,Folkebibliotek,774004,9.743094,Gjern Bibliotek
8641,Sorring,Sorringhus,Silkeborg Bibliotekerne,Hovedgaden 54 N,56.1758831,Folkebibliotek,774021,9.7815235,Sorringhus
8654,Bryrup,Vrads Købmandshandel,Silkeborg Bibliotekerne,St. Bredlundvej 6,56.041027,Folkebibliotek,774022,9.450739,Vrads Købmandshandel
8600,Silkeborg,Sinding Bibliotekscafé,Silkeborg Bibliotekerne,Sinding Hovvej 39A,56.2082433,Folkebibliotek,774023,9.4661874,Sinding Bibliotekscafé. Sinding Forsamlingshus
8620,Kjellerup,Thorning Skole,Silkeborg Bibliotekerne,Møllevej 7,56.284818,Folkebibliotek,774024,9.33181,Thorning Skole
8643,Ans,Ans Skole,Silkeborg Bibliotekerne,Teglgade 20,56.3072084,Folkebibliotek,774025,9.5874779,Ans Skole
8654,Bryrup,Bryrup Brugs,Silkeborg Bibliotekerne,Hovedgaden 13,56.0244881,Folkebibliotek,774026,9.511337,Bryrup Brugs
8632,Lemming,Lemming IF Klublokaler,Silkeborg Bibliotekerne,Lemming Skolevej 10B,56.23255,Folkebibliotek,774027,9.5542079,Værkeriet - Lemming Gl. Skole
8600,Silkeborg,Kragelund Lokalbrugs,Silkeborg Bibliotekerne,Engesvangvej 9,56.194684,Folkebibliotek,774028,9.4091817,Kragelund  Lokalbrugs
8305,Samsø,Samsø Bibliotek,Samsø Bibliotek,Marsk Stigsvej 5 A,55.8334831,Folkebibliotek,774100,10.5848498,Samsø Bibliotek
8305,Samsø,Nordby,Samsø Bibliotek,Nordby Hovedgade 27,,Folkebibliotek,774101,,Nordby Bibliotek
8660,Skanderborg,Skanderborg Bibliotek,Skanderborg Bibliotek,Parkvej 10,56.0352416,Folkebibliotek,774600,9.9322404,Skanderborg Bibliotek
8680,Ry,Ry Bibliotek,Skanderborg Bibliotek,Gudrunsvej 1,56.0908523,Folkebibliotek,774601,9.7642965,Ry Bibliotek
8362,Hørning,Hørning Bibliotek,Skanderborg Bibliotek,Rådhuspladsen 1,56.085108,Folkebibliotek,774602,10.035757,Hørning Bibliotek
8464,Galten,Galten Bibliotek,Skanderborg Bibliotek,Torvet 7,56.155456,Folkebibliotek,774603,9.904941,Galten Bibliotek
8660,Skanderborg,Hylke Bibliotek,Skanderborg Bibliotek,Hylkevej 45,,Folkebibliotek,774607,,Hylke Afhentningsted
8000,Aarhus C,Aarhus Kommunes Biblioteker,Aarhus Kommunes Biblioteker. Hovedbiblioteket.,Hack Kampmanns Plads 2,56.165278,Folkebibliotek,775100,10.227222,"Aarhus Kommunes Biblioteker, Hovedbiblioteket"
8270,Højbjerg,Højbjerg,Aarhus Kommunes Biblioteker. Hovedbiblioteket.,Oddervej 74,56.1142695,Folkebibliotek,775120,10.2074291,Højbjerg Bibliotek
8330,Beder,Beder-Malling,Aarhus Kommunes Biblioteker. Hovedbiblioteket.,Kirkebakken 41,56.060383,Folkebibliotek,775122,10.215753,Beder-Malling Bibliotek
8355,Solbjerg,Solbjerg,Aarhus Kommunes Biblioteker. Hovedbiblioteket.,Kærgårdsvej 4,56.042156,Folkebibliotek,775126,10.0840789,Solbjerg Bibliotek
8310,Tranbjerg,Tranbjerg,Aarhus Kommunes Biblioteker. Hovedbiblioteket.,"Kirketorvet 6B, st. 6",56.091095,Folkebibliotek,775127,10.135585,Tranbjerg Bibliotek
8260,Viby J.,Viby,Aarhus Kommunes Biblioteker. Hovedbiblioteket.,Skanderborgvej 170,56.130558,Folkebibliotek,775130,10.164646,Viby Bibliotek
8361,Hasselager,Bavnehøj,Aarhus Kommunes Biblioteker. Hovedbiblioteket.,Koltvej 17-19,56.1099242,Folkebibliotek,775133,10.0760538,Bavnehøj Kombi Bibliotek
8230,Åbyhøj,Åby,Aarhus Kommunes Biblioteker. Hovedbiblioteket.,Ludvig Feilbergsvej 7,56.156438,Folkebibliotek,775140,10.162515,Åby Bibliotek
8220,Brabrand,Gellerup,Aarhus Kommunes Biblioteker. Hovedbiblioteket.,Gudrunsvej 78,56.155667,Folkebibliotek,775144,10.135267,Gellerup Bibliotek
8462,Harlev,Harlev,Aarhus Kommunes Biblioteker. Hovedbiblioteket.,"Gammel Stillingvej 424,
Næshøjskolen,",56.139929,Folkebibliotek,775146,10.0032866,Harlev Kombi Bibliotek
8210,Aarhus V.,Hasle,Aarhus Kommunes Biblioteker. Hovedbiblioteket.,Kappelvænget 2 B,56.1792779,Folkebibliotek,775147,10.166976,Hasle Bibliotek
8471,Sabro,Sabro,Aarhus Kommunes Biblioteker. Hovedbiblioteket.,"Sabro Skolevej 4,
Sabro-Korsvejskolen",56.211784,Folkebibliotek,775149,10.023611,Sabro Bibliotek
8381,Tilst,Tilst,Aarhus Kommunes Biblioteker. Hovedbiblioteket.,Tilst Skolevej 13a,56.188355,Folkebibliotek,775150,10.110579,Tilst Bibliotek
8240,Risskov,Risskov,Aarhus Kommunes Biblioteker. Hovedbiblioteket.,Fortebakken 1,56.1937133,Folkebibliotek,775160,10.2234383,Risskov Bibliotek
8530,Hjortshøj,Hjortshøj,Aarhus Kommunes Biblioteker. Hovedbiblioteket.,"Virupvej 75,
Virupskolen",56.3092922,Folkebibliotek,775162,10.2085902,Hjortshøj Kombi Bibliotek
8250,Egå,Egå,Aarhus Kommunes Biblioteker. Hovedbiblioteket.,"Egå Havvej 5, Sølystskolen",56.211717,Folkebibliotek,775164,10.283211,Egå Kombi Bibliotek
8520,Lystrup,Lystrup,Aarhus Kommunes Biblioteker. Hovedbiblioteket.,Bystævnet 4 B,56.234166,Folkebibliotek,775167,10.2283329,Lystrup Bibliotek
8541,Skødstrup,Skødstrup,Aarhus Kommunes Biblioteker. Hovedbiblioteket.,"Rosenbakken 4, Skødstrup Skole",56.271602,Folkebibliotek,775168,10.308421,Skødstrup Kombi-bibliotek
8380,Trige,Trige,Aarhus Kommunes Biblioteker. Hovedbiblioteket.,Smedebroen 21,56.253203,Folkebibliotek,775170,10.147788,Trige Kombi Bibliotek
7430,Ikast,Ikast Bibliotek,Ikast-Brande Bibliotek,Grønnegade 25,56.141837,Folkebibliotek,775600,9.152847,Ikast Bibliotek
7330,Brande,Brande Bibliotek,Ikast-Brande Bibliotek,Centerparken 2,55.940895,Folkebibliotek,775601,9.125928,Brande Bibliotek
7441,Bording,Bording Bibliotek,Ikast-Brande Bibliotek,Solsortevej 10,,Folkebibliotek,775602,,Bording Bibliotek
7361,Ejstrupholm,Ejstrupholm Bibliotek,Ikast-Brande Bibliotek,Grønningen 3,,Folkebibliotek,775603,,Ejstrupholm Bibliotek
7442,Engesvang,Engesvang Bibliotek,Ikast-Brande Bibliotek,"Engesvang Skole
Gl. Kongevej 97",,Folkebibliotek,775604,,Engesvang Bibliotek
8766,Nørre Snede,Nørre Snede Bibliotek,Ikast-Brande Bibliotek,Bellisvej 2,,Folkebibliotek,775605,,Nr. Snede Bibliotek
6950,Ringkøbing,Ringkøbing-Skjern,Ringkøbing-Skjern Bibliotekerne,Ved Fjorden 6,56.086535,Folkebibliotek,776000,8.242397,Ringkøbing Bibliotek
6900,Skjern,Skjern Bibliotek,Ringkøbing-Skjern Bibliotekerne,Engtoften 1,55.9479462,Folkebibliotek,776001,8.4964523,Skjern Bibliotek
6880,Tarm,Tarm Bibliotek,Ringkøbing-Skjern Bibliotekerne,Engvej 2,55.907727,Folkebibliotek,776002,8.516476,Tarm Bibliotek
6920,Videbæk,Videbæk Bibliotek,Ringkøbing-Skjern Bibliotekerne,Fischersvej 6,56.090198,Folkebibliotek,776003,8.629023,Videbæk Bibliotek
6960,Hvide Sande,Hvide Sande Bibliotek,Ringkøbing-Skjern Bibliotekerne,Skolevej 1,56.007465,Folkebibliotek,776004,8.129276,Hvide Sande Bibliotek
8722,Hedensted,Hedensted Bibliotek,Hedensted Bibliotekerne,Østerbrogade 26,55.77085,Folkebibliotek,776600,9.7024268,Hedensted Bibliotek
7160,Tørring,Tørring Bibliotek,Hedensted Bibliotekerne,"Gudenåcentret
Kirkevej 10, 1",55.860647,Folkebibliotek,776601,9.482918,Tørring Bibliotek
7171,Uldum,Uldum Bibliotek,Hedensted Bibliotekerne,Bakken 2,55.8453,Folkebibliotek,776602,9.588212,Uldum Bibliotek
8783,Hornsyld,Hornsyld Bibliotek,Hedensted Bibliotekerne,Nørremarksvej 1 B,55.757478,Folkebibliotek,776603,9.8456703,Hornsyld Bibliotek
7130,Juelsminde,Juelsminde Bibliotek,Hedensted Bibliotekerne,Wedelsgade 1,55.7133651,Folkebibliotek,776604,10.0127488,Juelsminde Bibliotek
7900,Nykøbing Mors,Morsø Folkebibliotek,Morsø Folkebibliotek,Holgersgade 7,56.7968238,Folkebibliotek,777300,8.8611087,Morsø Folkebibliotek
7800,Skive,Skive Bibliotek,Skive Bibliotek,Østergade 25,56.567195,Folkebibliotek,777900,9.028752,Skive Bibliotek
7800,Skive,Bogbusserne,Skive Bibliotek,"Skive Bibliotek
Østergade 25",56.5667255,Folkebibliotek,777901,9.0294515,Bogbus1
7860,Spøttrup,Balling,Skive Bibliotek,"Stadion Alle 18, Balling",,Folkebibliotek,777902,,Bogbus2
,,,Skive Bibliotek,,,Folkebibliotek,777903,,Mobillen
7700,Thisted,Biblioteket i Thy,Biblioteket i Thy,Tingstrupvej 19,56.956368,Folkebibliotek,778700,8.685837,Thisted Bibliotek
7700,Thisted,1 bogbus,Biblioteket i Thy,Tingstrupvej 13-19,56.955966,Folkebibliotek,778701,8.686613,Bogbussen
7730,Hanstholm,Hanstholm Bibliotek,Biblioteket i Thy,"Bytorvet 2
Box 109",57.112861,Folkebibliotek,778710,8.617668,Hanstholm Bibliotek
7760,Hurup Thy,Hurup Bibliotek,Biblioteket i Thy,Søndergade 1,56.748626,Folkebibliotek,778720,8.421566,Hurup Bibliotek
8800,Viborg,Viborg,Viborg Bibliotekerne,Vesterbrogade 15,56.449818,Folkebibliotek,779100,9.398641,"Viborg Bibliotekerne, Hovedbiblioteket"
8800,Viborg,Houlkær,Viborg Bibliotekerne,Odshøjvej 5C,56.46272,Folkebibliotek,779102,9.448549,Houlkær Bibliotek
9632,Møldrup,Møldrup Bibliotek,Viborg Bibliotekerne,Skolegade 27,56.6184574,Folkebibliotek,779105,9.5005356,Møldrup Bibliotek
8832,Skals,Skals bibliotek,Viborg Bibliotekerne,Ejstrupvej 18B,56.557891,Folkebibliotek,779109,9.406609,Skals Bibliotek
8830,Tjele,Ørum Bibliotek,Viborg Bibliotekerne,"Gl. Tjelevej 10
Ørum",56.48388,Folkebibliotek,779110,9.624895,Ørum Bibliotek
8850,Bjerringbro,Bjerringbro Bibliotek,Viborg Bibliotekerne,Realskolevej 12,56.376865,Folkebibliotek,779115,9.656368,Bjerringbro Bibliotek
8840,Rødkærsbro,Rødkærsbro Bibliotek,Viborg Bibliotekerne,Brandstrupvej 23,56.35543,Folkebibliotek,779116,9.504139,Rødkærsbro Bibliotek
7850,Stoholm,Stoholm Bibliotek,Viborg Bibliotekerne,Iglsøvej 5,56.484337,Folkebibliotek,779117,9.14227,Stoholm Bibliotek
7470,Karup,Karup Bibliotekerne,Viborg Bibliotekerne,Ved Banen 5,56.3072144,Folkebibliotek,779122,9.1679897,Karup Bibliotek
7470,Karup,Frederiks Bibliotek,Viborg Bibliotekerne,"Trehusevej 2 B, Frederiks",56.3451162,Folkebibliotek,779123,9.251028,Frederiks Bibliotek
,,,Viborg Bibliotekerne,,,Folkebibliotek,779131,,Servicepunkt Hammershøj
,,,Viborg Bibliotekerne,,,Folkebibliotek,779132,,Servicepunkt Ulbjerg
,,,Viborg Bibliotekerne,,,Folkebibliotek,779135,,Servicepunkt Løgstrup
,,,Viborg Bibliotekerne,,,Folkebibliotek,779136,,Servicepunkt Vridsted
9700,Brønderslev,Brønderslev Bibliotek,Brønderslev Bibliotek,P.N. Jensens Plads 5,57.2683528,Folkebibliotek,781000,9.9506411,Brønderslev Bibliotek
9700,Brønderslev,Det Mobile Bibliotek,Brønderslev Bibliotek,P.N. Jensens Plads 5,57.2683528,Folkebibliotek,781001,9.9506411,Bogbussen
9330,Dronninglund,Dronninglund  Bibliotek,Brønderslev Bibliotek,Slotsgade 47,57.1595874,Folkebibliotek,781006,10.2913026,Dronninglund bibliotek
9320,Hjallerup,Hjallerup Bibliotek,Brønderslev Bibliotek,Nørre Allé 3,57.169539,Folkebibliotek,781008,10.146004,Hjallerup bibliotek
,,,Brønderslev Bibliotek,,,Folkebibliotek,781050,,Det Mobile Bibliotek - Agersted
,,,Brønderslev Bibliotek,,,Folkebibliotek,781051,,Det Mobile Bibliotek - Asaa
,,,Brønderslev Bibliotek,,,Folkebibliotek,781052,,Det Mobile Bibliotek - Flauenskjold
,,,Brønderslev Bibliotek,,,Folkebibliotek,781053,,Det Mobile Bibliotek - Hallund
,,,Brønderslev Bibliotek,,,Folkebibliotek,781054,,Det Mobile Bibliotek - Hellum
,,,Brønderslev Bibliotek,,,Folkebibliotek,781055,,Det Mobile Bibliotek - Jerslev
,,,Brønderslev Bibliotek,,,Folkebibliotek,781056,,Det Mobile Bibliotek - Klokkerholm. Holdeplads mandag
,,,Brønderslev Bibliotek,,,Folkebibliotek,781057,,Det Mobile Bibliotek - Klokkerholm. Holdeplads onsdag
,,,Brønderslev Bibliotek,,,Folkebibliotek,781058,,Det Mobile Bibliotek - Manna
,,,Brønderslev Bibliotek,,,Folkebibliotek,781059,,Det Mobile Bibliotek - Serritslev
,,,Brønderslev Bibliotek,,,Folkebibliotek,781060,,Det Mobile Bibliotek - Stenum
,,,Brønderslev Bibliotek,,,Folkebibliotek,781061,,Det Mobile Bibliotek - Sterup
,,,Brønderslev Bibliotek,,,Folkebibliotek,781062,,Det Mobile Bibliotek - Thise
,,,Brønderslev Bibliotek,,,Folkebibliotek,781063,,Det Mobile Bibliotek - Øster Brønderslev
9900,Frederikshavn,Frederikshavns Biblioteker,Frederikshavn Kommunes Biblioteker,"Parallelvej 16
",57.442711,Folkebibliotek,781300,10.521006,Frederikshavn Bibliotek
9300,Sæby,Sæby  Bibliotek,Frederikshavn Kommunes Biblioteker,"Rådhuspladsen 1
Postbox 141",57.3308698,Folkebibliotek,781302,10.5166278,Sæby Bibliotek
9750,Østervrå,Østervrå Bibliotek,Frederikshavn Kommunes Biblioteker,Bredgade 6,57.342235,Folkebibliotek,781303,10.235304,Østervrå Bibliotek
9982,Ålbæk,Ålbæk,Frederikshavn Kommunes Biblioteker,Engvej 8-10,57.5933625,Folkebibliotek,781304,10.4070461,Ålbæk Bibliotek
9990,Skagen,Skagens Bibliotek,Frederikshavn Kommunes Biblioteker,Skolevej 5,57.722668,Folkebibliotek,781305,10.5877079,Skagen Bibliotek
9900,Frederikshavn,Elling afhentningssted,Frederikshavn Kommunes Biblioteker,"Grundtvigsvej 1, Elling",,Folkebibliotek,781306,,Elling afhentningsted
9300,Sæby,Hørby afhentningssted,Frederikshavn Kommunes Biblioteker,"Hjørringvej 112, Hørby",,Folkebibliotek,781307,,Hørby afhentningsted
9330,Dronninglund,Præstbro afhentningsted,Frederikshavn Kommunes Biblioteker,"Hovedgaden 35 C, Præstbro",,Folkebibliotek,781308,,Præstbro afhentningsted
9600,Aars,Vesthimmerlands Biblioteker,Vesthimmerlands Biblioteker,Søndergade 24,56.802403,Folkebibliotek,782000,9.51731,Aars bibliotek
9670,Løgstør,Løgstør Bibliotek,Vesthimmerlands Biblioteker,Fredensgade 7,56.9675834,Folkebibliotek,782001,9.2503011,Løgstør Bibliotek
9640,Farsø,Farsø Bibliotek,Vesthimmerlands Biblioteker,Frederik IX s Plads 3,56.7716178,Folkebibliotek,782002,9.3445009,Farsø Bibliotek
9620,Aalestrup,Aalestrup Bibliotek,Vesthimmerlands Biblioteker,Knabergården 4,56.694439,Folkebibliotek,782003,9.49054,Aalestrup Bibliotek
,,,Vesthimmerlands Biblioteker,,,Folkebibliotek,782011,,Gedsted Bogcafè
,,,Vesthimmerlands Biblioteker,,,Folkebibliotek,782012,,Hvalpsund Bogcafé
,,,Vesthimmerlands Biblioteker,,,Folkebibliotek,782013,,Ranum Bogcafé
,,Vegger Bogcafè,Vesthimmerlands Biblioteker,,,Folkebibliotek,782014,,Vegger Bogcafè
,,,Vesthimmerlands Biblioteker,,,Folkebibliotek,782015,,Overlade Bogcafé
9940,Læsø (Laesoe),Læsø Bibliotek,Læsø Bibliotek,"Byrum Hovedgade 58, Byrum",57.253753,Folkebibliotek,782500,11.002351,"Byrum, Læsø"
DK - 9940,Læsø,Østerby Bibl. og Servicecenter,Læsø Bibliotek,Østerby Havnegade 11,,Folkebibliotek,782502,,"Østerby, Læsø"
9530,Støvring,Rebild Bibliotekerne,Rebild Bibliotekerne,Grangårdsvej 13,56.8889672,Folkebibliotek,784000,9.8366669,Biblioteket Støvring
9520,Skørping,Skørping Bibliotek,Rebild Bibliotekerne,Sverriggårdsvej 4,56.8358368,Folkebibliotek,784001,9.887984,Skørping Bibliotek
9575,Terndrup,Terndrup,Rebild Bibliotekerne,Terndrup Center 3,56.812488,Folkebibliotek,784002,10.058735,Terndrup Bibliotek
9610,Nørager,Nørager Bibliotek,Rebild Bibliotekerne,Vestermarksvej 2,56.7072673,Folkebibliotek,784003,9.6279225,Nørager Bibliotek
9530,Støvring,Bogbussen,Rebild Bibliotekerne,"Støvring Bibliotek
Hobrovej 90",56.8891113,Folkebibliotek,784004,9.8362967,Bogbussen
9500,Hobro,Hobro Bibliotek,Mariagerfjord Bibliotekerne,"Hobro Bibliotek (hovedbibliotek)
St. Torv",56.6391392,Folkebibliotek,784600,9.797648,Hobro Bibliotek
9510,Arden,Arden Bibliotek,Mariagerfjord Bibliotekerne,"Bluhmesgade 19
Postbox 103",56.769043,Folkebibliotek,784601,9.856832,Arden Bibliotek
9560,Hadsund,Hadsund  Bibliotek,Mariagerfjord Bibliotekerne,Kirkegade 4,56.7186994,Folkebibliotek,784602,10.1178412,Hadsund Bibliotek
9550,Mariager,Mariager Bibliotek,Mariagerfjord Bibliotekerne,Teglgade 6,56.650427,Folkebibliotek,784603,9.980795,Mariager Bibliotek
9560,Hadsund,Als Bibliotek,Mariagerfjord Bibliotekerne,Vikingvej 4,56.7565264,Folkebibliotek,784605,10.2877988,Als Bibliotek
9460,Brovst,Brovst Bibliotek,Jammerbugt Bibliotekerne,Rotfeldsvej 11,57.101018,Folkebibliotek,784900,9.517732,Brovst Bibliotek
9440,Aabybro,Aabybro Bibliotek,Jammerbugt Bibliotekerne,Kattedamsvej 32B,57.1634563,Folkebibliotek,784901,9.7347079,Aabybro Bibliotek
9490,Pandrup,Pandrup Bibliotek,Jammerbugt Bibliotekerne,Lundbakvej 3 A,57.220598,Folkebibliotek,784902,9.677702,Pandrup Bibliotek
9690,Fjerritslev,Fjerritslev Bibliotek,Jammerbugt Bibliotekerne,Danmarksgade 1,57.087405,Folkebibliotek,784903,9.265699,Fjerritslev Bibliotek
9460,Brovst,Jammerbugt - Bogbussen,Jammerbugt Bibliotekerne,Rotfeldsvej 11,57.101018,Folkebibliotek,784904,9.517732,Bogbus
9000,Aalborg,Aalborg Bibliotekerne,Aalborg Bibliotekerne,Rendsburggade 2,57.0472572,Folkebibliotek,785100,9.9275896,Aalborg Bibliotekerne. Hovedbiblioteket
9000,Aalborg,Haraldslund,Aalborg Bibliotekerne,Kastetvej 83,57.054224,Folkebibliotek,785101,9.898961,Haraldslund Bibliotek
9000,Aalborg,Vejgaard,Aalborg Bibliotekerne,Hadsundvej 35,57.041402,Folkebibliotek,785103,9.951504,Vejgaard Bibliotek
9210,Aalborg SØ,Grønlands Torv,Aalborg Bibliotekerne,"Grønlands Torv 1, st.",57.0230115,Folkebibliotek,785104,9.94299,Biblioteket Grønlands Torv
9220,Aalborg ØSt,Trekanten,Aalborg Bibliotekerne,Sebbersundvej 2A,57.0277153,Folkebibliotek,785106,10.0003913,Trekanten Bibliotek & Kulturhus
9000,Aalborg,Hasseris,Aalborg Bibliotekerne,Hasseris Bymidte 3,57.036556,Folkebibliotek,785107,9.88339,Hasseris Bibliotek
9400,Nørresundby,Nørresundby,Aalborg Bibliotekerne,Østerbrogade 52B,57.0577107,Folkebibliotek,785109,9.9243795,Nørresundby Bibliotek
9400,Nørresundby,Løvvang,Aalborg Bibliotekerne,Løvbakken 6,,Folkebibliotek,785110,,Løvvang Bibliotek
9230,Svenstrup J,Svenstrup,Aalborg Bibliotekerne,Godthåbsvej 14 D,56.9723414,Folkebibliotek,785113,9.8517401,Svenstrup Bibliotek
9310,Vodskov,Vodskov,Aalborg Bibliotekerne,Brorsonsvej 3,57.10377,Folkebibliotek,785116,10.027571,Vodskov Bibliotek
9370,Hals,Hals Bibliotek,Aalborg Bibliotekerne,Østergade 2A,56.9950239,Folkebibliotek,785117,10.3095658,Hals Bibliotek
9240,Nibe,Nibe Bibliotek,Aalborg Bibliotekerne,St. Algade 4,56.982095,Folkebibliotek,785123,9.636342,Nibe Bibliotek
9000,Aalborg,HistorieAalborg,Aalborg Bibliotekerne,Arkivstræde 1,,Folkebibliotek,785131,,HistorieAalborg
9100,Aalborg,Bogbussen Aalborg,Aalborg Bibliotekerne,"Rendsburggade 2,
Postboks 839",,Folkebibliotek,785140,,Bogbus 1
,,,Aalborg Bibliotekerne,,,Folkebibliotek,785141,,Bogbus 2
,,,Aalborg Bibliotekerne,,,Folkebibliotek,785142,,Bogbus 3
9280,Storvorde,Storvorde,Aalborg Bibliotekerne,Stationsvej 5,57.001631,Folkebibliotek,785143,10.101506,Storvorde Bibliotek
9800,Hjørring,Hjørring Bibliotek,Hjørring Bibliotekerne,"Metropol, Østergade 30",57.4580861,Folkebibliotek,786000,9.9909581,Hjørring Bibliotek
9850,Hirtshals,Hirtshals Bibliotek,Hjørring Bibliotekerne,Jørgen Fibigersgade 26,57.5904807,Folkebibliotek,786001,9.9603369,Hirtshals Bibliotek
9760,Vrå,Vrå Bibliotek,Hjørring Bibliotekerne,Sønder Vråvej 1,57.353108,Folkebibliotek,786002,9.946824,Vrå Bibliotek
9480,Løkken,Løkken Bibliotek,Hjørring Bibliotekerne,Harald Fischers Vej 30,57.372502,Folkebibliotek,786003,9.714157,Løkken Bibliotek
9870,Sindal,Sindal Bibliotek,Hjørring Bibliotekerne,Torvegade 15,57.472046,Folkebibliotek,786004,10.200346,Sindal Bibliotek
9830,Tårs,Tårs - Fakta,Hjørring Bibliotekerne,"Fakta
Guldregnvej 3",57.387019,Folkebibliotek,786006,10.11397,Tårs
9881,Bindslev,Bindslev Dagli'Brugsen,Hjørring Bibliotekerne,"Dagli'Brugsen
Vesterbro 9",57.5420495,Folkebibliotek,786007,10.1964522,Bindslev
9800,Hjørring,Bjergby - Skole,Hjørring Bibliotekerne,"Bjergby-Mygdal Skole
Asdalvej 14
Bjergby",57.5134,Folkebibliotek,786008,10.025916,Bjergby
9881,Bindslev,Tversted - Super Spar,Hjørring Bibliotekerne,"Super Spar
Tannisbugtvej 38
Tversted",57.58692,Folkebibliotek,786010,10.188126,Tversted
9870,Sindal,Mosbjerg - Mosbjerghus,Hjørring Bibliotekerne,"Botilbuddet Mosbjerghus
Jerupvej 485
Mosbjerg",57.503576,Folkebibliotek,786011,10.278933,Mosbjerg
9800,Hjørring,Lønstrup - Super Spar,Hjørring Bibliotekerne,"Super Spar,
Strandvejen 82
Lønstrup",57.471932,Folkebibliotek,786012,9.797296,Lønstrup
,,,Hjørring Bibliotekerne,,,Folkebibliotek,786017,,Lørslev
1234,Testby-test,DBC Test Bibliotek - 4.2,DBC-Test-vsn,B. Adresse,,Other,790900,,DBCTestBibliotek
1221,København K,"Kgl. Bibl./KUB - Kbh., DIA",Det Kgl. Bibliotek - København,Søren Kierkegaards Plads 1,55.6732158,Forskningsbibliotek,810010,12.5821264,Det Kgl. Bibliotek København. Diamanten
1123,København K,"Kgl. Bibl./KUB - Kbh., SAMF",Det Kgl. Bibliotek - København,Gothersgade 140,55.6856006,Forskningsbibliotek,810011,12.5700945,Det Samfundsvidenskabelige Fakultetsbibliotek
2300,København S,"Kgl. Bibl./KUB - Kbh., S. Camp",Det Kgl. Bibliotek - København,Karen Blixens Plads 7,55.661891,Forskningsbibliotek,810012,12.589797,"Københavns Universitetsbibliotek, Søndre Campus"
2200,København N,"Kgl. Bibl./KUB - Kbh., NORD",Det Kgl. Bibliotek - København,"Nørre Allé, 49",55.697244,Forskningsbibliotek,810013,12.5611979,Københavns Universitetsbibliotek Nord (KUB Nord)
1219,København K,Dansk Folkemindesamlings Bibli,Det Kgl. Bibliotek - København,Christians Brygge 3,,Forskningsbibliotek,810014,,Dansk Folkemindesamlings Bibliotek
1221,København K,Kgl. Bibl./Kbh. - Nat. samling,Det Kgl. Bibliotek - København,Søren Kierkegaards Plads 1,,Forskningsbibliotek,810015,,Det Kgl. Bibliotek København. Nationale samlinger
8000,Aarhus C,Det Kgl. Bibl. - Aarhus,Det Kgl. Bibliotek - Aarhus,Victor Albecks Vej 1,56.1701747,Forskningsbibliotek,820010,10.199239,Det Kgl. Bibliotek - Aarhus
1219,København K,BiblioteksCenter f Integration,Det Kgl. Bibliotek - Aarhus,"Det Kgl. Bibliotek
Christians Brygge 8",,Forskningsbibliotek,820012,,BiblioteksCenter for Integration
8000,Aarhus,AU Library Sundhedsvidenskab,Det Kgl. Bibliotek - Aarhus,Vennelyst Boulevard 4,56.166644,Forskningsbibliotek,820014,10.206756,AU Library Sundhedsvidenskab
,,,Det Kgl. Bibliotek - Aarhus,,,Forskningsbibliotek,820015,,Skejby Magasin
,,,Det Kgl. Bibliotek - Aarhus,,,Forskningsbibliotek,820016,,Brabrand Magasin
5230,Odense M,SDUB Odense,Syddansk Universitetsbibliotek,Campusvej 55,55.3683931,Forskningsbibliotek,820030,10.4276852,"Syddansk Universitetsbibliotek, Odense"
6700,Esbjerg,SDUB Esbjerg,Syddansk Universitetsbibliotek,Niels Bohrs Vej 9,55.491036,Forskningsbibliotek,820031,8.449366,Syddansk Universitetsbibliotek Esbjerg
6000,Kolding,SDUB Kolding,Syddansk Universitetsbibliotek,Universitetsparken 1,55.495973,Forskningsbibliotek,820032,9.4730519,Syddansk Universitetsbibliotek Kolding
6400,Sønderborg,SDUB Sønderborg,Syddansk Universitetsbibliotek,Alsion 2,54.9130458,Forskningsbibliotek,820033,9.7789006,Syddansk Universitetsbibliotek Sønderborg
5000,Odense C, SDUB- O Videncentret OUH,Syddansk Universitetsbibliotek,"J.B. Winsløws Vej 4, indgang 50 st.",,Forskningsbibliotek,820034,,"Videncentret, Odense Universitetshospital"
5000,Odense C,SDUB Musikafdelingen,Syddansk Universitetsbibliotek,Islandsgade 2,55.400929,Forskningsbibliotek,820036,10.402539,Syddansk Universitetsbibliotek Musikafdelingen
4200,Slagelse,SDUB Slagelse,Syddansk Universitetsbibliotek,Sdr. Stationsvej 28,55.4072389,Forskningsbibliotek,820039,11.3485739,"Syddansk Universitetsbibliotek Slagelse, Biblioteket"
4000,Roskilde,Roskilde Universitetsbibl.,Det Kgl. Bibliotek - København,Universitetsvej 1,55.652912,Forskningsbibliotek,820040,12.143393,Roskilde Universitetsbibliotek
9220,Aalborg Øst,Aalborg Universitetsbibliotek,Aalborg Universitetsbibliotek,Langagervej 2,57.020799,Forskningsbibliotek,820050,9.977612,Aalborg Universitetsbibliotek
6700,Esbjerg,AUB Esbjerg,Aalborg Universitetsbibliotek,Niels Bohrs Vej 8,,Forskningsbibliotek,820051,,Aalborg Universitetsbibliotek Esbjerg
2450,København SV,AUB København,Aalborg Universitetsbibliotek,A. C. Meyersvænge 15,,Forskningsbibliotek,820052,,Aalborg Universitetsbibliotek København
2970,Hørsholm,SBI Biblioteket,Aalborg Universitetsbibliotek,Dr. Neergaardsvej 15,,Forskningsbibliotek,820053,,"Statens Byggeforskningsinstitut, Biblioteket"
2800,Kgs. Lyngby,DTU Bibliotek Lyngby,DTU Bibliotek. Danmarks Tekniske Informationscenter,"Anker Engelunds Vej 1
Bygning 101D",55.786908,Forskningsbibliotek,820060,12.523264,"Danmarks Tekniske Informationscenter, Lyngby"
2400,København NV,"AUL, Emdrup (DPB)","AU Library, Campus Emdrup (DPB)","Postboks 840
Tuborgvej 164",55.72171,Forskningsbibliotek,820070,12.543195,"AU  Library, Campus Emdrup (DPB)"
8000,Århus C,AAA biblioteket,Biblioteket Arkitektskolen Aarhus,Nørreport 20,56.1612494,Forskningsbibliotek,820080,10.2124633,Biblioteket Arkitektskolen Aarhus
2200,København N,"Institut for Idræt, Bibliotek",Institut for Idræt og Ernæring. Biblioteket,Nørre Allé 51,,Forskningsbibliotek,820100,,Institut for Idræt og Ernæring. Biblioteket
1870,Frederiksberg C,KUB Frederiksberg,Det Kgl. Bibliotek - København,Dyrlægevej 10,55.679072,Forskningsbibliotek,820110,12.54134,Københavns Universitetsbibliotek Frederiksberg (KUB Frederiksberg)
2000,Frederiksberg,CBS Bibliotek,CBS Bibliotek,Solbjerg Plads 3,55.6815889,Forskningsbibliotek,820120,12.5290918,CBS Bibliotek - Solbjerg Plads
2000,Frederiksberg,CBSB,CBS Bibliotek,Dalgas Have 15,,Forskningsbibliotek,820121,,CBS Bibliotek - Dalgas Have. Læsesal
2000,Frederiksberg,CBSB,CBS Bibliotek,Porcelænshaven 26,55.677864,Forskningsbibliotek,820122,12.521467,CBS Bibliotek - Porcelænshaven. Læsesal
,,,CBS Bibliotek,,,Forskningsbibliotek,820123,,CBS Bibliotek - Graduate House. Læsesal
8210,Århus V,AU Library Fuglesangsalle,"AU Library, Fuglesangs Allé",Fuglesangs Allé 4,56.1622333,Forskningsbibliotek,820140,10.1824915,"AU Library, Fuglesangs Alle"
1007,København K,DKB,Det Kgl. Bibliotek - København,Nyhavn 2,55.6760968,Forskningsbibliotek,820150,12.5683371,"Danmarks Kunstbibliotek, Nyhavn Afdeling"
8000,Århus,"Center for Rusmiddelforskning,","Center for Rusmiddelforskning, Biblioteket","Bartholins Allé 10
Bygning 1322",,Forskningsbibliotek,820180,,"Center for Rusmiddelforskning, Biblioteket"
2300,København S,"ITU, Biblioteket","IT-Universitetet i København, Biblioteket 2E04","Rued Langgaards Vej 7
",,Forskningsbibliotek,820190,,"IT-Universitetet i København, Biblioteket 2D08"
2300,København S,IVA Biblioteket,Det Kgl. Bibliotek - København,"Njalsgade 76 
Søndre Campus, bygning 5A",55.656189,Forskningsbibliotek,830010,12.598737,Det Informationsvidenskabelige Akademi
2200,København N,"Campusbibl, Sigurdsgade",PHB. Bibliotekerne ved professionshøjskolerne Metropol og UCC,Sigurdsgade 26,,Forskningsbibliotek,830060,,Campusbiblioteket Rådmandsmarken
,,,PHB. Bibliotekerne ved professionshøjskolerne Metropol og UCC,,,Forskningsbibliotek,830062,,Professionshøjskolen UCC - Bornholm. Biblioteket
1799,København V,Campuslib. Carlsberg,PHB. Bibliotekerne ved professionshøjskolerne Metropol og UCC,Humletorvet 3,,Forskningsbibliotek,830063,,Campus Carlsberg
3460,Birkerød,Kriminalforsorgen,Kriminalforsorgens Bibliotek,Biskop Svanes Vej 69,,Forskningsbibliotek,830070,,Kriminalforsorgens Bibliotek
1401,København K,Kriminalforsorgen,Kriminalforsorgens Bibliotek,Strandgade 100,,Forskningsbibliotek,830071,,"Kriminalforsorgens Bibliotek, Strandgade"
1434,København K,Biblioteket KADK,"Det Kongelige Danske Kunstakademis skoler for Arkitektur, Design og Konservering. Biblioteket",Danneskiold-Samsøes Allé 50,55.6814193,Forskningsbibliotek,830080,12.6051379,"Biblioteket for Arkitektur, Design og Scenekunst"
8200,Århus N,Journalisthøjskolen,"Danmarks Medie- og Journalisthøjskole, Biblioteket",Olof Palmes Allé 11,,Forskningsbibliotek,830140,,"Danmarks Medie- og Journalisthøjskole, Biblioteket Aarhus"
6705,Esbjerg Ø,"UC SYD Bibl., Esbjerg",UC Syd Biblioteket,Degnevej 16,55.4833649,Forskningsbibliotek,830190,8.4857417,"University College Syddanmark Biblioteket, Esbjerg"
2000,Frederiksberg,Læreruddannelserne Metropol,PHB. Bibliotekerne ved professionshøjskolerne Metropol og UCC,Nyelandsvej 27,,Forskningsbibliotek,830240,,Læreruddannelserne Metropol. Biblioteket
2400,København NV,Mediehøjskolen,"Danmarks Medie- og Journalisthøjskole, Biblioteket",Emdrupvej 72,,Forskningsbibliotek,830280,,"Danmarks Medie- og Journalisthøjskole, Biblioteket København"
6100,Haderslev,"UC SYD Bibl., Haderslev",UC Syd Biblioteket,Lembckesvej 3 - 7,55.2545603,Forskningsbibliotek,830290,9.4854699,"University College Syddanmark Biblioteket, Haderslev"
7400,Herning,"AU Library, Herning","AU Library, Fuglesangs Allé",Birk Centerpark 15,56.1294714,Forskningsbibliotek,830300,9.0270544,"AU Library, Herning"
3400,Hillerød,UCC Nordsjælland,PHB. Bibliotekerne ved professionshøjskolerne Metropol og UCC,Carlsbergvej 14,,Forskningsbibliotek,830360,,UCC Nordsjælland. Biblioteket
4180,Sorø,Campus Sorø,Professionshøjskolen Absalon. Biblioteket,Slagelsevej 70-74,55.444605,Forskningsbibliotek,830370,11.547643,Professionshøjskolen Absalon. Biblioteket. Campus Sorø
4180,Sorø,PHA Adm,Professionshøjskolen Absalon. Biblioteket,Slagelsevej 7,55.4397849,Forskningsbibliotek,830371,11.5575087,Professionshøjskolen Absalon. Biblioteket. Fælles Administrationen
4000,Roskilde,Campus Roskilde,Professionshøjskolen Absalon. Biblioteket,Trekroner Forskerparken 4,55.6507804,Forskningsbibliotek,830372,12.141245,Professionshøjskolen Absalon. Biblioteket. Campus Roskilde
4400,Kalundborg,Campus Kalundborg,Professionshøjskolen Absalon. Biblioteket,J. Hagemann-Petersens Allé 4,,Forskningsbibliotek,830373,,Professionshøjskolen Absalon. Biblioteket. Campus Kalundborg
9210,Aalborg SØ,"UCN Biblioteket, M. E. Vej","University College Nordjylland, Biblioteket",Mylius Erichsens Vej 137,57.018477,Forskningsbibliotek,830380,9.948632,"University College Nordjylland, Biblioteket, Mylius Erichsens Vej"
7500,Holstebro,VIA UC  Campus Holstebro,VIA UC Bibliotekerne,Gl. Struervej 1,56.3707225,Forskningsbibliotek,830400,8.6169082,VIA Biblioteket Campus Holstebro
8700,Horsens,VIA UC. Bibl. Campus Horsens,VIA UC Bibliotekerne,Chr. M. Østergaards Vej 4,55.871524,Forskningsbibliotek,830410,9.886037,VIA Biblioteket Campus Horsens
7430,Ikast,"VIA UC Ikast, Biblioteket",VIA UC Bibliotekerne,Bøgildvej 12,,Forskningsbibliotek,830450,,VIA Biblioteket Pædagoguddannelsen i Ikast
7300,Jelling,"UCL, Jelling","University College Lillebælt, Biblioteket",Stationsvej 4,55.755695,Forskningsbibliotek,830460,9.420212,University College Lillebælt. Biblioteket i Jelling
8900,Randers C,VIA UC Randers,VIA UC Bibliotekerne,Jens Otto Krags Plads 3,56.4613818,Forskningsbibliotek,830471,10.0426475,VIA Biblioteket Campus Randers
8000,Århus C,"DJM, Aarhus","Det Jyske Musikkonservatorium, Biblioteket",Skovgaardsgade 2C,,Forskningsbibliotek,830480,,"Det Jyske Musikkonservatorium, Århus, Biblioteket"
6000,Kolding,"UC SYD Bibl., Kolding",UC Syd Biblioteket,Dyrehavevej 116,55.4997515,Forskningsbibliotek,830500,9.4731599,"University College Syddanmark Biblioteket, Kolding"
1970,Frederiksberg C,"DKDM, Biblioteket","Det Kgl. Danske Musikkonservatorium, Biblioteket",Rosenørns Allé 22,,Forskningsbibliotek,830520,,"Det Kgl. Danske Musikkonservatorium, Biblioteket"
2750,Ballerup,DTU Ballerup,DTU Bibliotek. Danmarks Tekniske Informationscenter,Lautrupvang 15,,Forskningsbibliotek,830560,,"Danmarks Tekniske Informationscenter, Ballerup"
5762,V.Skerninge,"Den frie lærerskole, Bibliotek","Den frie lærerskole, Biblioteket","Svendborgvej 15
Ollerup",55.07103,Forskningsbibliotek,830600,10.506812,"Den frie lærerskole, Biblioteket"
9000,Aalborg,"DJM, Aalborg","Det Jyske Musikkonservatorium, Biblioteket",Musikkens Plads 1,,Forskningsbibliotek,830630,,"Det Jyske Musikkonservatorium, Aalborg, Biblioteket"
7620,Lemvig,VIA UC Nørre Nissum,VIA UC Bibliotekerne,Svinget 5,56.54734,Forskningsbibliotek,830660,8.420313,VIA Studieværkstedet i Nørre Nissum
5000,Odense C,BeklædningsfagskolenOdense,"Odense Fagskole, Biblioteket",Ørstedsgade 28,,Forskningsbibliotek,830680,,"Odense Fagskole, Biblioteket"
5230,Odense M,"UCL, Odense","University College Lillebælt, Biblioteket",Niels Bohrs Allé 1,55.3973436,Forskningsbibliotek,830690,10.3874569,University College Lillebælt. Biblioteket i Odense
8600,Silkeborg,VIA UC Campus Silkeborg,VIA UC Bibliotekerne,Nattergalevej 1,56.168618,Forskningsbibliotek,830750,9.573111,VIA Biblioteket Campus Silkeborg
7800,Skive,Pædagogisk Bibliotek Skive,VIA UC Bibliotekerne,Dalgas Allé 20,56.5503529,Forskningsbibliotek,830770,9.0127815,VIA Pædagogisk Bibliotek i Skive
2000,Frederiksberg,DSHK,PHB. Bibliotekerne ved professionshøjskolerne Metropol og UCC,Kronprinsesse Sofiesvej 35,,Forskningsbibliotek,830830,,Socialrådgiveruddannelserne. Biblioteket
6700,Esbjerg,"SDMK, Esbjerg","Syddansk Musikkonservatorium (SDMK) Esbjerg, Biblioteket",Kirkegade 61,55.4704747,Forskningsbibliotek,830930,8.4506202,"Syddansk Musikkonservatorium (SDMK) Esbjerg, Biblioteket"
8800,Viborg,VIA UC Campus Viborg,VIA UC Bibliotekerne,Prinsens Allé 2,56.458726,Forskningsbibliotek,830950,9.402872,VIA Biblioteket Campus Viborg
4760,Vordingborg,Campus Vordingborg,Professionshøjskolen Absalon. Biblioteket,Kuskevej 1,55.0131363,Forskningsbibliotek,830960,11.8975872,Professionshøjskolen Absalon. Biblioteket. Campus Vordingborg
4800,Nykøbing F.,Campus Nykøbing,Professionshøjskolen Absalon. Biblioteket,Bispegade 5,54.764658,Forskningsbibliotek,830961,11.878863,"Professionshøjskolen Absalon. Biblioteket. Nykøbing F., Biblioteket"
4700,Næstved,Campus Næstved,Professionshøjskolen Absalon. Biblioteket,Parkvej 190,55.205479,Forskningsbibliotek,830963,11.767418,Professionshøjskolen Absalon. Biblioteket. Campus Næstved
6200,Aabenraa,"UC SYD Bibl., Aabenraa",UC Syd Biblioteket,Campusallé 20,55.040852,Forskningsbibliotek,830980,9.4151589,"University College Syddanmark Biblioteket, Aabenraa"
9800,Hjørring,"UCN Biblioteket, Skolevangen","University College Nordjylland, Biblioteket",Skolevangen 45,57.458559,Forskningsbibliotek,831000,10.003269,"University College Nordjylland, Biblioteket, Skolevangen"
8000,Aarhus C,VIA UC,VIA UC Bibliotekerne,Ceresbyen 24,,Forskningsbibliotek,831020,,VIA Biblioteket Campus Aarhus C
8200,Aarhus N,"AU Library, Katrinebjerg",AU Library Katrinebjerg,"Finlandsgade 21, 1. sal",56.1587207,Forskningsbibliotek,831040,10.2154356,AU Library Katrinebjerg
9220,Aalborg Øst,"UCN Biblioteket, S. L. Vej","University College Nordjylland, Biblioteket",Selma Lagerløfs Vej 2,57.016158,Forskningsbibliotek,831080,9.9941739,"University College Nordjylland, Biblioteket, Selma Lagerløfs Vej"
4800,Nykøbing F,CELF,CELF. Center for Erhvervsrettede Uddannelser Lolland Falster. Biblioteket,Merkurs Plads 1,54.775845,Forskningsbibliotek,831140,11.878755,"CELF, Biblioteket Merkur"
5260,Odense S,Dalum Landbrugsskole,"Dalum Landbrugsskole, Biblioteket",Landbrugsvej 65,,Forskningsbibliotek,831170,,"Dalum Landbrugsskole, Biblioteket"
6715,Esbjerg N,"Sosu-Esbjerg, Biblioteket","Social- og Sundhedsskolen Esbjerg, Biblioteket",Gjesinglund Allé 8,,Forskningsbibliotek,831180,,"Social- og Sundhedsskolen Esbjerg, Biblioteket"
4100,Ringsted,SOSU Sjælland,SOSU Sjælland. Bibliotekerne,Selandi Park 6 - 8,,Forskningsbibliotek,831200,,SOSU Sjælland. Bibliotek Ringsted
4600,Køge,SOSU Køge,SOSU Sjælland. Bibliotekerne,Lyngvej 24A,,Forskningsbibliotek,831201,,SOSU Sjælland. Bibliotek Køge
4300,Holbæk,SOSUHolbæk,SOSU Sjælland. Bibliotekerne,Slotshaven 3,,Forskningsbibliotek,831202,,SOSU Sjælland. Bibliotek. Holbæk
7000,Fredericia,SSH Fredericia,"Social- og Sundhedsskolen Fredericia, Biblioteket",6. Julivej 67,,Forskningsbibliotek,831260,,"Social- og Sundhedsskolen Fredericia, Biblioteket"
7100,Vejle,SSH Vejle,"Social- og Sundhedsskolen Fredericia, Biblioteket",Vestre Engvej 46A,,Forskningsbibliotek,831261,,"Social- og Sundhedsskolen Vejle, Biblioteket"
4800,Nykøbing F,SOSU Nykøbing F. Biblioteket,SOSU Nykøbing F. Bibliotek,Vestensborg Allé 78,,Forskningsbibliotek,831340,,SOSU Nykøbing F. Bibliotek
8200,Aarhus N,VIA UC Aarhus N,VIA UC Bibliotekerne,Hedeager 2,56.192499,Forskningsbibliotek,831350,10.181203,VIA Studiebiblioteket Campus Aarhus N
7100,Vejle,SDE-B Vejle,Syddansk Erhvervsskole. Biblioteket OTG,Boulevarden 36,55.7117907,Forskningsbibliotek,831380,9.5220021,Syddansk Erhvervsskole. Biblioteket Vejle
6240,Løgumkloster,Løgumkloster Kirkemusikskole,"Løgumkloster Kirkemusikskole, Biblioteket",Vestergade 9-13,,Forskningsbibliotek,831410,,"Løgumkloster Kirkemusikskole, Biblioteket"
2200,København N,KUB NS Geobiblioteket,GeoBiblioteket,Nørre Allé 49,,Forskningsbibliotek,840020,,GeoBiblioteket
1150,København K,Center for Afrikastudier,"Center for Afrikastudier, Biblioteket","Købmagergade 46, 4. sal",,Forskningsbibliotek,840050,,"Center for Afrikastudier, Biblioteket"
2300,København S,Det Arnamagnæanske Institut<br,Nordisk Forskningsinstituts Bibliotek. Københavns Universitet,Njalsgade 136,,Forskningsbibliotek,840100,,"Den Arnamagnæanske Samling, Biblioteket"
 , ,,"Institut for medicinsk biokemi og genetik, Afdeling A", ,,Forskningsbibliotek,840110,,"Institut for Medicinsk Biokemi & Genetik, Biblioteket."
2300,København S,Institut for Tværkulturelle ..,Institut for Tværkulturelle og Regionale Studier. Biblioteket,Snorresgade 17-19,,Forskningsbibliotek,840130,,"Institut for Tværkulturelle og Regionale Studier, Carsten Niebuhr Afdelingen, Biblioteket"
 , ,Ferskvandsbiologisk Laboratori,"Ferskvandsbiologisk Laboratorium, Biblioteket", ,,Forskningsbibliotek,840170,,"Ferskvandsbiologisk Laboratorium, Biblioteket"
2300,København S,"Inst. for Fil., Pæd. og Ret.","Institut for Medier, Erkendelse og Formidling. Biblioteket",Njalsgade 80,,Forskningsbibliotek,840180,,"Institut for Medier, Erkendelse og Formidling, Biblioteket"
 , ,Fors.mat. Lab. Bibl.,Afdeling for Anvendt Matematik og Statistik, ,55.701504,Forskningsbibliotek,840200,12.560686,"Afdeling for Anvendt Matematik og Statistik, Biblioteket"
2300,København S,Saxo-instituttet,"Biblioteket for Historie, Saxo-instituttet",Njalsgade 102,,Forskningsbibliotek,840220,,"Biblioteket for Historie, Saxo-instituttet"
 , ,Institut for Dansk Dialektfors,Nordisk Forskningsinstituts Bibliotek. Københavns Universitet, ,,Forskningsbibliotek,840270,,"Afdeling for Dialektforskning, Biblioteket"
 , ,,"Bibliotekerne for Arkæologi og Etnologi.  Københavns Universitet, SAXO-Instituttet", ,,Forskningsbibliotek,840300,,"Bibliotekerne for Arkæologi og Etnologi.  Københavns Universitet, SAXO-Instituttet"
 , ,,"Biblioteket for Etnologi,  Forhistorisk  og  Klassisk Arkæologisk.  Københavns Universitet, SAXO-Instituttet", ,,Forskningsbibliotek,840350,,"Biblioteket for Etnologi,  Forhistorisk  og  Klassisk Arkæologisk.  Københavns Universitet, SAXO-Instituttet"
2300,København S,Biblioteket for Græsk og Latin,"Biblioteket for Arkæologi, Etnologi og Græsk & Latin. Saxo Instituttet","Njalsgade 92, tr. 2, 3",,Forskningsbibliotek,840360,,"Biblioteket for Græsk og Latin. Københavns Universitet, SAXO-Instituttet"
2300,København S,Institut for Navneforskning,Nordisk Forskningsinstituts Bibliotek. Københavns Universitet,"Njalsgade 80, tr. 10, 3",,Forskningsbibliotek,840420,,"Afdeling for Navneforskning, Biblioteket"
2300,København S,Biblioteket ved INSS,Biblioteket ved Institut for Nordiske Studier & Sprogvidenskab,"Njalsgade 120, bygning 22",,Forskningsbibliotek,840430,,Biblioteket ved Institut for nordiske Studier & Sprogvidenskab
2300,København S,,Biblioteket ved Institut for Nordiske Studier & Sprogvidenskab,Njalsgade 80,,Forskningsbibliotek,840431,,Kønsforsknings samling. Institut for Nordiske Studier & Sprogvidenskab
1455,København K,Juridisk Videncenter,Det Kgl. Bibliotek - København,Studiestræde 34,55.6781961,Forskningsbibliotek,840540,12.5680503,Juridisk Videncenter
2300,København S,"INSS, Lingvistisk Samling",Biblioteket ved Institut for Nordiske Studier & Sprogvidenskab,Njalsgade 120,,Forskningsbibliotek,840550,,Lingvistisk samling. Institut for Nordiske Studier og & Sprogvidenskab
2100,København Ø,Matematisk Bibliotek KU,Institut for Matematiske Fags bibliotek,Universitetsparken 5,,Forskningsbibliotek,840560,,Institut for Matematiske Fags bibliotek
2100,København Ø,,"Niels Bohr Institutet, Biblioteket",Blegdamsvej 17,,Forskningsbibliotek,840600,,Niels Bohr Institutet. Biblioteket
2300,København S,"Romansk Institut, Biblioteket","Institutbiblioteket for Engelsk, Germansk og Romansk. Københavns Universitet",Njalsgade 128,,Forskningsbibliotek,840650,,"Institutbiblioteket for Engelsk, Germansk og Romansk. Københavns Universitet"
2300,København S,Institut for Kunst- og Kulturv,"Institut for Kunst- og Kulturvidenskab, Biblioteket",Njalsgade 80,,Forskningsbibliotek,840690,,"Institut for Kunst- og Kulturvidenskab, Biblioteket"
2100,København Ø,Zoologisk Museums Bibliotek,Zoologisk Museums Bibliotek,Universitetsparken 15,,Forskningsbibliotek,840700,,Zoologisk Museums Bibliotek
2300,København S,NORS-Nibliotek,Biblioteket ved Institut for Nordiske Studier & Sprogvidenskab,"Njalsgade 120, 22.5.11",,Forskningsbibliotek,840790,,Finsk samling. Institut for Nordiske Studier og Sprogvidenskab
1150,København K,Teologisk Fakultetsbibliotek,Det Teologiske Fakultetsbibliotek,Købmagergade 44-46,,Forskningsbibliotek,840810,,Det Teologiske Fakultetsbibliotek
8000,Århus C,"AU Library, Nobelparken","AU Library, Nobelparken",Jens Chr. Skous Vej 5,,Forskningsbibliotek,840930,,"AU Library, Nobelparken"
5230,Odense M,"Biologisk Institut, Biblioteke","Biologisk Institut, Biblioteket",Campusvej 55,,Forskningsbibliotek,841020,,"Biologisk Institut, Biblioteket"
8000,Århus C,,Institut for Fysiologi og Biofysik. Biblioteket,"Universitetsparken
Bygning 160",,Forskningsbibliotek,841030,,Institut for Fysiologi og Biofysik. Biblioteket
 , ,,"Retsmedicinsk Institut, Biblioteket", ,,Forskningsbibliotek,841160,,"Retsmedicinsk Institut, Biblioteket"
2800,Kgs. Lyngby,"DTU Miljø, Bibliotek","Institut for Vand & Miljøteknologi, Biblioteket","Miljøvej
Bygning 113",,Forskningsbibliotek,841180,,"Institut for Vand & Miljøteknologi, Biblioteket"
2800,Kgs. Lyngby,"DTU Compute, bibliotek",DTU Compute. Biblioteket. Danmarks Tekniske Universitet,Danmarks Tekniske Universitet,,Forskningsbibliotek,841210,,DTU Compute. Biblioteket
8000,Århus C,"AU Library, Ny Munkegade",AU Library Katrinebjerg,"Ny Munkegade 118
Bygning 1536, 2. etage",56.1664503,Forskningsbibliotek,841260,10.198699,"AU Library, Ny Munkegade"
2800,Lyngby,,"DTU. Elektro, Automation and Control","Danmarks Tekniske Universistet, 
Bygning 326, Elektrovej",,Forskningsbibliotek,841340,,"DTU, Elektro,Automation and Control. Biblioteket"
 , ,,"Center for Tyske Studier, Biblioteket", ,,Forskningsbibliotek,841370,,"Center for Tyske Studier, Biblioteket"
 , ,,"Institut for Litteratur, kultur og medier, Center for", ,,Forskningsbibliotek,841520,,"Institut for Litteratur, kultur og medier, Center for fransk og frankofone studier"
 , ,,"Institut for Kemiteknik, Biblioteket", ,,Forskningsbibliotek,841570,,"Institut for Kemiteknik, Biblioteket"
8000,Aarhus C,AU Library - Kasernen,"AU Library, Nobelparken","Langelandsgade 151
Bygning 1582",,Forskningsbibliotek,841660,,"AU Libray, Kasernen"
 , ,,"Biologisk Institut, Afdeling for Systematisk Botanik. Afdeling for Botanisk Økologi, Biblioteket", ,,Forskningsbibliotek,841690,,"Biologisk Institut, Afdeling forSystematisk Botanik, Afdeling forBotanisk Økologi, Biblioteket"
 , ,,"Ørsted DTU, Akustisk Teknologi Biblioteket", ,,Forskningsbibliotek,841870,,"Ørsted DTU, Akustisk Teknologi, Biblioteket"
8270,Højbjerg,"AU Library, Moesgård","AU Library, Nobelparken",Moesgaard Alle 20,,Forskningsbibliotek,841920,,"AU Library, Moesgård"
 , ,,"Retsmedicinsk Institut, Biblioteket", ,,Forskningsbibliotek,842040,,"Retsmedicinsk Institut, Biblioteket"
 , ,,"Institut for Matematik, Biblioteket", ,,Forskningsbibliotek,842110,,"Institut for Matematik, Biblioteket"
 , ,,"Institut for Oto-, Rhino- Laryng- ologi, Biblioteket", ,,Forskningsbibliotek,842150,,"Institut for Oto-, Rhino- Laryngologi, Biblioteket"
 , ,,"DTU Elektro, Biblioteket", ,,Forskningsbibliotek,842470,,"DTU Elektro, Biblioteket"
 , ,,"Marinbiologisk Laboratorium, Biblioteket", ,,Forskningsbibliotek,842570,,"Marinbiologisk Laboratorium, Biblioteket"
2800,Lyngby,"DTU-IPL, Biblioteket",DTU Management. Biblioteket,"Produktionstorvet
Bygning 424",,Forskningsbibliotek,842820,,DTU Management. Biblioteket
9220,Aalborg Øst,Center For Dansk Jazzhistorie,Center For Dansk Jazzhistorie. Biblioteket,"Aalborg Universitetscenter
Kroghstræde 6",,Forskningsbibliotek,842910,,"Center For Dansk Jazzhistorie, Biblioteket"
2200,København N,UCSF. Biblioteket,UCSF - Universitetshospitalernes Center for Sundhedsfaglig Forskning. Biblioteket,"Rigshospitalet, afsnit 7331
Tagensvej 20",,Forskningsbibliotek,842930,,UCSF - Universitetshospitalernes Center for Sundhedsfaglig Forskning. Biblioteket
 , ,,"Afdelingen for Medicinsk Videnskabsteori, Biblioteket", ,,Forskningsbibliotek,843000,,"Afdelingen for Medicinsk Videnskabsteori, Biblioteket"
1216,København K,Det Administrative Bibliotek,Det Kgl. Bibliotek - Det Administrative Bibliotek,Slotsholmsgade 12,55.6748711,Forskningsbibliotek,850010,12.584745,Det Kgl. Bibliotek - Det Administrative Bibliotek
2630,Taastrup,Arbejderbevægelsens Bibliotek,Arbejdermuseet & Arbejderbevægelsens Bibliotek og Arkiv,Hørsvinget 5,55.660866,Forskningsbibliotek,850020,12.303565,Arbejdermuseet & Arbejderbevægelsens Bibliotek og Arkiv
,,,Arbejdermuseet & Arbejderbevægelsens Bibliotek og Arkiv,,,Forskningsbibliotek,850021,,Arbejdermuseet/ABA (Rømersgade)
1052,København K,SFI Bibliotek,SFI - Det Nationale Forskningscenter for Velfærd. Biblioteket,Herluf Trollesgade 11,55.6789316,Forskningsbibliotek,850030,12.590436,"SFI - Det Nationale Forskningscenter for Velfærd, Bibliotek"
2100,København Ø,FBC,"Forsvarets Bibliotekscenter, Kastellet",Kastellet 46,55.6914492,Forskningsbibliotek,850040,12.5949606,"Forsvarets Bibliotekscenter, Kastellet"
2100,København Ø,Danmarks Statistiks Bibliotek,Danmarks Statistik Informationsservice og Bibliotek,Sejrøgade 11,,Forskningsbibliotek,850050,,Danmarks Statistik Informationsservice og Bibliotek
1553,København V,BiblioteksstyrelsenBibliot,Slots- og Kulturstyrelsen,H.C. Andersens Boulevard 2 ,,Forskningsbibliotek,850130,,"Slots- og Kulturstyrelsen, Biblioteket"
,,,Slots- og Kulturstyrelsen,,,Forskningsbibliotek,850131,,Biblioteksafgiften. Slots- og Kulturstyrelsen
1553,København,SLKS,Slots- og Kulturstyrelsen,H.C. Andersens Boulevard 2,,Forskningsbibliotek,850132,,Slots- og Kulturstyrelsen. Nationale biblioteksløsninger
2100,København Ø,DIIS,DIIS Biblioteket,Gl. Kalkbrænderivej 51A,,Forskningsbibliotek,850160,,DIIS Biblioteket
